{"name":"THREE","year":2005,"lat":33.72333333,"lon":-111.275,"state":"AZ"}
{"name":"OAK","year":2005,"lat":33.93361111,"lon":-111.37972222,"state":"AZ"}
{"name":"TW0 BAR","year":2005,"lat":33.55111111,"lon":-111.10666667,"state":"AZ"}
{"name":"SAWMILL GULCH","year":2005,"lat":45.30833333,"lon":-106.35833333,"state":"MT"}
{"name":"FORK","year":2005,"lat":33.61333333,"lon":-108.55888889,"state":"NM"}
{"name":"ERICKSON SPRING","year":2005,"lat":45.44833333,"lon":-105.95527778,"state":"MT"}
{"name":"MASON","year":2005,"lat":38.16972222,"lon":-105.03805556,"state":"CO"}
{"name":"RICCO","year":2005,"lat":44.19361111,"lon":-103.39388889,"state":"SD"}
{"name":"CEMENT","year":2005,"lat":44.37194444,"lon":-104.17416667,"state":"WY"}
{"name":"HALE GULCH","year":2005,"lat":45.38805556,"lon":-114.21,"state":"ID"}
{"name":"SNAKE RIDGE FIRE","year":2005,"lat":33.16972222,"lon":-109.19055556,"state":"AZ"}
{"name":"STODDARD CREEK POINT","year":2005,"lat":45.24861111,"lon":-114.72277778,"state":"ID"}
{"name":"BIG SANDS","year":2005,"lat":46.3425,"lon":-114.58777778,"state":"ID"}
{"name":"ALPINE LAKE","year":2005,"lat":48.14,"lon":-90.96777778,"state":"MN"}
{"name":"RUNNING LAKE","year":2005,"lat":45.92333333,"lon":-115.025,"state":"ID"}
{"name":"CEDAR BAREFOOT","year":2005,"lat":45.88083333,"lon":-114.63972222,"state":"ID"}
{"name":"LODGEPOLE HUMP","year":2005,"lat":46.69611111,"lon":-114.90138889,"state":"ID"}
{"name":"MILL CREEK","year":2005,"lat":37.17388889,"lon":-113.53833333,"state":"UT"}
{"name":"BOXCAR","year":2005,"lat":45.92777778,"lon":-114.95833333,"state":"ID"}
{"name":"BEAVER JACK","year":2005,"lat":45.73027778,"lon":-114.70666667,"state":"ID"}
{"name":"BURNT","year":2005,"lat":45.7,"lon":-115.01,"state":"ID"}
{"name":"CHINA TEN","year":2005,"lat":45.93222222,"lon":-115.78583333,"state":"ID"}
{"name":"HASTINGS","year":2005,"lat":40.28638889,"lon":-115.61611111,"state":"NV"}
{"name":"ELK CREEK","year":2005,"lat":45.97472222,"lon":-114.88583333,"state":"ID"}
{"name":"PENNY","year":2005,"lat":46.02055556,"lon":-114.86555556,"state":"ID"}
{"name":"NINE SHOT","year":2005,"lat":45.09055556,"lon":-114.70361111,"state":"ID"}
{"name":"REYNOLDS LAKE","year":2005,"lat":45.5325,"lon":-114.58722222,"state":"ID"}
{"name":"MUSTANG","year":2005,"lat":45.42527778,"lon":-114.61638889,"state":"ID"}
{"name":"BLACK CANYON FACE","year":2005,"lat":46.80027778,"lon":-115.21,"state":"ID"}
{"name":"RIO BLANCO WFU","year":2005,"lat":37.15583333,"lon":-106.88444444,"state":"CO"}
{"name":"LOWER BURN CREEK","year":2005,"lat":45.59916667,"lon":-114.6825,"state":"ID"}
{"name":"JOHNSON","year":2005,"lat":34.04666667,"lon":-108.87944444,"state":"NM"}
{"name":"BEAR CREEK WFU","year":2005,"lat":45.45583333,"lon":-114.9775,"state":"ID"}
{"name":"STRIPE CREEK","year":2005,"lat":45.515,"lon":-114.76194444,"state":"ID"}
{"name":"MUDERSBACH","year":2005,"lat":35.86611111,"lon":-111.92527778,"state":"AZ"}
{"name":"NORTH","year":2005,"lat":35.90416667,"lon":-111.9675,"state":"AZ"}
{"name":"FLORIDA","year":2005,"lat":31.42277778,"lon":-111.33,"state":"AZ"}
{"name":"BURNT STRIP MOUNTAIN","year":2005,"lat":45.70416667,"lon":-114.99861111,"state":"ID"}
{"name":"CRAG","year":2005,"lat":35.09333333,"lon":-118.20555556,"state":"CA"}
{"name":"BULL","year":2005,"lat":33.39472222,"lon":-108.28972222,"state":"NM"}
{"name":"SIGNAL ROCK","year":2005,"lat":46.14833333,"lon":-113.79583333,"state":"MT"}
{"name":"CB RANCH MUTUAL AID","year":2005,"lat":46.04333333,"lon":-114.15194444,"state":"MT"}
{"name":"ROCK IN","year":2005,"lat":46.05361111,"lon":-114.40472222,"state":"MT"}
{"name":"MOUNTAIN","year":2005,"lat":33.65166667,"lon":-108.70416667,"state":"NM"}
{"name":"PEPPIN","year":2004,"lat":33.60138889,"lon":-105.43333333,"state":"NM"}
{"name":"PROSPECT","year":2005,"lat":47.05,"lon":-115.01138889,"state":"MT"}
{"name":"SHEEP CREEK WFU","year":2005,"lat":40.86444444,"lon":-109.92833333,"state":"UT"}
{"name":"STARVATION WFU","year":2005,"lat":45.35166667,"lon":-114.975,"state":"ID"}
{"name":"BIG DRY CANYON WFU","year":2005,"lat":43.45166667,"lon":-111.14944444,"state":"ID"}
{"name":"JOE CREEK WFU","year":2005,"lat":45.23055556,"lon":-115.32055556,"state":"ID"}
{"name":"WEST FORK WFU","year":2005,"lat":45.23638889,"lon":-115.32055556,"state":"ID"}
{"name":"WOLF FANG WFU","year":2005,"lat":45.21555556,"lon":-115.43361111,"state":"ID"}
{"name":"MISSOURI RIDGE WFU","year":2005,"lat":45.00055556,"lon":-115.3875,"state":"ID"}
{"name":"BUTTE","year":2005,"lat":34.40638889,"lon":-111.97972222,"state":"AZ"}
{"name":"BLOSSOM","year":2005,"lat":42.72361111,"lon":-123.93833333,"state":"OR"}
{"name":"SYCAMORE","year":2005,"lat":34.68277778,"lon":-112.85416667,"state":"AZ"}
{"name":"MULE PEAK","year":2005,"lat":45.10805556,"lon":-117.55972222,"state":"OR"}
{"name":"FLY","year":2005,"lat":45.10277778,"lon":-118.51083333,"state":"OR"}
{"name":"FALLS CREEK","year":2005,"lat":44.62222222,"lon":-113.74583333,"state":"ID"}
{"name":"HAAS RIDGE","year":2005,"lat":45.68722222,"lon":-116.74972222,"state":"OR"}
{"name":"EDGE","year":2005,"lat":33.66666667,"lon":-111.46666667,"state":"AZ"}
{"name":"FOUR","year":2005,"lat":33.675,"lon":-111.35,"state":"AZ"}
{"name":"MILES","year":2005,"lat":33.42722222,"lon":-111.07555556,"state":"AZ"}
{"name":"NO MANS LAND","year":2006,"lat":34.44166667,"lon":-93.84444444,"state":"AR"}
{"name":"FLATSIDE","year":2006,"lat":34.83583333,"lon":-93.04305556,"state":"AR"}
{"name":"TAYLOR","year":2006,"lat":33.33611111,"lon":-108.07444444,"state":"NM"}
{"name":"BRUSHY","year":2006,"lat":33.31777778,"lon":-108.91861111,"state":"NM"}
{"name":"HACKBERRY","year":2006,"lat":33.92388889,"lon":-111.23583333,"state":"AZ"}
{"name":"GOODALE","year":2006,"lat":36.97638889,"lon":-118.26444444,"state":"CA"}
{"name":"CHIPPEAN RIDGE","year":2006,"lat":37.8,"lon":-109.63583333,"state":"UT"}
{"name":"JACKASS","year":2006,"lat":38.55166667,"lon":-119.35944444,"state":"CA"}
{"name":"MARTINEZ","year":2006,"lat":33.58333333,"lon":-108.86666667,"state":"NM"}
{"name":"MARTINEZ II","year":2006,"lat":33.59722222,"lon":-108.88888889,"state":"NM"}
{"name":"WILSON","year":2006,"lat":33.85722222,"lon":-108.22333333,"state":"NM"}
{"name":"TIGER","year":2006,"lat":34.17916667,"lon":-112.22888889,"state":"AZ"}
{"name":"277","year":2006,"lat":30.36222222,"lon":-82.38694444,"state":"FL"}
{"name":"RUSH","year":2006,"lat":41.10333333,"lon":-123.03666667,"state":"CA"}
{"name":"WEST WFU","year":2006,"lat":35.90888889,"lon":-111.99694444,"state":"AZ"}
{"name":"COLE CREEK","year":2006,"lat":45.58833333,"lon":-108.95972222,"state":"MT"}
{"name":"SHANE RIDGE","year":2006,"lat":45.49194444,"lon":-109.08416667,"state":"MT"}
{"name":"RIDGE","year":2006,"lat":34.90083333,"lon":-119.27944444,"state":"CA"}
{"name":"MOUNTAIN MEADOW","year":2006,"lat":44.5075,"lon":-115.36833333,"state":"ID"}
{"name":"SHARPS RIDGE","year":2006,"lat":44.80277778,"lon":-118.74027778,"state":"OR"}
{"name":"WARM","year":2006,"lat":36.65972222,"lon":-112.19,"state":"AZ"}
{"name":"HIGH","year":2006,"lat":41.46916667,"lon":-121.33472222,"state":"CA"}
{"name":"POTATO","year":2006,"lat":34.49416667,"lon":-110.74388889,"state":"AZ"}
{"name":"BLACK HORSE CREEK","year":2006,"lat":45.59583333,"lon":-101.99444444,"state":"SD"}
{"name":"BALLS CANYON","year":2006,"lat":39.66194444,"lon":-120.08277778,"state":"CA"}
{"name":"TROY PEAK","year":2006,"lat":38.24166667,"lon":-115.525,"state":"NV"}
{"name":"BIG CREEK","year":2006,"lat":45.31583333,"lon":-110.86861111,"state":"MT"}
{"name":"DERBY","year":2006,"lat":45.53611111,"lon":-109.93472222,"state":"MT"}
{"name":"PASSAGE FALLS","year":2006,"lat":45.23472222,"lon":-110.47361111,"state":"MT"}
{"name":"JUNGLE","year":2006,"lat":45.43694444,"lon":-110.39888889,"state":"MT"}
{"name":"0564 - MAXWELL FIRE","year":2006,"lat":44.49083333,"lon":-120.1975,"state":"OR"}
{"name":"ROBERTS TRACT","year":2006,"lat":42.68333333,"lon":-103.145,"state":"NE"}
{"name":"SPOTTED TAIL #3","year":2006,"lat":42.69111111,"lon":-102.96055556,"state":"NE"}
{"name":"WATT DRAW","year":2006,"lat":45.49111111,"lon":-105.97138889,"state":"MT"}
{"name":"SNOW CANYON","year":2006,"lat":41.42361111,"lon":-116.07388889,"state":"NV"}
{"name":"RB-78","year":2006,"lat":36.26944444,"lon":-102.41305556,"state":"TX"}
{"name":"MILKSHAKE","year":2006,"lat":36.305,"lon":-102.6325,"state":"TX"}
{"name":"POTATO","year":2006,"lat":44.32472222,"lon":-114.83944444,"state":"ID"}
{"name":"BOUNDARY","year":2006,"lat":44.49861111,"lon":-115.28916667,"state":"ID"}
{"name":"HOLLAND PEAK","year":2006,"lat":47.52,"lon":-113.59861111,"state":"MT"}
{"name":"TANGO POINT","year":2006,"lat":47.53555556,"lon":-113.54972222,"state":"MT"}
{"name":"JENNY CREEK","year":2006,"lat":47.30361111,"lon":-113.28055556,"state":"MT"}
{"name":"SUN DOG","year":2006,"lat":48.68138889,"lon":-114.44166667,"state":"MT"}
{"name":"BLUEGRASS","year":2006,"lat":45.36666667,"lon":-121.59944444,"state":"OR"}
{"name":"SHERWOOD","year":2006,"lat":38.255,"lon":-115.40166667,"state":"NV"}
{"name":"DEEP CREEK","year":2006,"lat":39.47388889,"lon":-111.85361111,"state":"UT"}
{"name":"CUB (WFU)","year":2006,"lat":44.85722222,"lon":-114.77333333,"state":"ID"}
{"name":"LIGHTNING","year":2006,"lat":45.44722222,"lon":-116.25944444,"state":"ID"}
{"name":"CHEYENNE RIVER","year":2006,"lat":43.31027778,"lon":-105.34888889,"state":"WY"}
{"name":"BALD","year":2006,"lat":34.925,"lon":-119.95972222,"state":"CA"}
{"name":"CUMMINGS","year":2006,"lat":43.81333333,"lon":-104.42444444,"state":"WY"}
{"name":"NORTH ELK","year":2006,"lat":44.5275,"lon":-115.45777778,"state":"ID"}
{"name":"COLUMBIA COMPLEX","year":2006,"lat":46.14305556,"lon":-118.04416667,"state":"WA"}
{"name":"EAST ROARING","year":2006,"lat":43.66833333,"lon":-115.42972222,"state":"ID"}
{"name":"SAGE","year":2006,"lat":41.68583333,"lon":-120.51833333,"state":"CA"}
{"name":"EAST LANGDON","year":2006,"lat":45.61888889,"lon":-114.71916667,"state":"ID"}
{"name":"BARE PEAK","year":2006,"lat":45.83472222,"lon":-114.4175,"state":"MT"}
{"name":"SOMES","year":2006,"lat":41.315,"lon":-123.49666667,"state":"CA"}
{"name":"MOUNT AURA","year":2006,"lat":45.85111111,"lon":-114.80222222,"state":"ID"}
{"name":"TROUT CREEK","year":2006,"lat":45.50694444,"lon":-115.30527778,"state":"ID"}
{"name":"BURNT","year":2006,"lat":44.70027778,"lon":-115.48361111,"state":"ID"}
{"name":"JIM CREEK","year":2006,"lat":45.9475,"lon":-116.87888889,"state":"OR"}
{"name":"HARVEY","year":2006,"lat":40.05888889,"lon":-122.90805556,"state":"CA"}
{"name":"SUMMIT","year":2006,"lat":44.64583333,"lon":-115.57555556,"state":"ID"}
{"name":"RATTLESNAKE","year":2006,"lat":44.30138889,"lon":-115.78722222,"state":"ID"}
{"name":"HUNTER","year":2006,"lat":39.66055556,"lon":-122.86166667,"state":"CA"}
{"name":"SLIDE CREEK","year":2006,"lat":46.7175,"lon":-115.1875,"state":"ID"}
{"name":"SLED","year":2006,"lat":46.67,"lon":-115.03222222,"state":"ID"}
{"name":"HANCOCK","year":2006,"lat":41.44888889,"lon":-123.2925,"state":"CA"}
{"name":"TITUS","year":2006,"lat":41.60277778,"lon":-123.37694444,"state":"CA"}
{"name":"DUNCE WFU","year":2006,"lat":45.125,"lon":-114.78305556,"state":"ID"}
{"name":"HORSE HEAVEN","year":2006,"lat":45.25833333,"lon":-116.5575,"state":"ID"}
{"name":"KINGSLEY","year":2006,"lat":40.03777778,"lon":-122.94138889,"state":"CA"}
{"name":"BOULDER","year":2006,"lat":40.21888889,"lon":-120.60722222,"state":"CA"}
{"name":"TRIPOD COMPLEX","year":2006,"lat":48.50333333,"lon":-120.04444444,"state":"WA"}
{"name":"VAN PEAK","year":2006,"lat":48.93972222,"lon":-120.27972222,"state":"WA"}
{"name":"SPUR PEAK","year":2006,"lat":48.65805556,"lon":-120.02888889,"state":"WA"}
{"name":"CEDAR CREEK","year":2006,"lat":48.52416667,"lon":-120.58055556,"state":"WA"}
{"name":"TATOOSH","year":2006,"lat":48.89611111,"lon":-120.56111111,"state":"WA"}
{"name":"CLEAR CREEK","year":2006,"lat":45.07333333,"lon":-117.15277778,"state":"OR"}
{"name":"BOWEN","year":2006,"lat":42.13861111,"lon":-112.69722222,"state":"ID"}
{"name":"TWIN BUTTE","year":2006,"lat":46.06416667,"lon":-114.68722222,"state":"ID"}
{"name":"TAMARACK WFU","year":2006,"lat":44.97916667,"lon":-115.37277778,"state":"ID"}
{"name":"SIXTY TWO RIDGE","year":2006,"lat":46.13833333,"lon":-115.07638889,"state":"ID"}
{"name":"BISHOP CREEK","year":2006,"lat":44.94333333,"lon":-115.38055556,"state":"ID"}
{"name":"LICK CREEK WFU","year":2006,"lat":45.07972222,"lon":-115.79777778,"state":"ID"}
{"name":"BRUSHY","year":2006,"lat":45.97638889,"lon":-114.64972222,"state":"ID"}
{"name":"KRASSEL","year":2006,"lat":44.95027778,"lon":-115.71888889,"state":"ID"}
{"name":"SHEEP CREEK WFU","year":2006,"lat":45.02972222,"lon":-115.60305556,"state":"ID"}
{"name":"PHOEBE 2","year":2006,"lat":44.94194444,"lon":-115.64666667,"state":"ID"}
{"name":"RAINBOW","year":2006,"lat":44.92027778,"lon":-115.83666667,"state":"ID"}
{"name":"TWIN LAKES","year":2006,"lat":45.05611111,"lon":-115.49972222,"state":"ID"}
{"name":"VAN METER","year":2006,"lat":44.97444444,"lon":-115.50166667,"state":"ID"}
{"name":"TAILHOLT CREEK","year":2006,"lat":45.05916667,"lon":-115.68888889,"state":"ID"}
{"name":"NANNY CREEK","year":2006,"lat":48.01694444,"lon":-112.83777778,"state":"MT"}
{"name":"CIGARETTE ROCK","year":2006,"lat":47.38861111,"lon":-112.86972222,"state":"MT"}
{"name":"COUGAR","year":2006,"lat":44.8375,"lon":-115.75333333,"state":"ID"}
{"name":"MEADOW","year":2006,"lat":45.73722222,"lon":-115.18944444,"state":"ID"}
{"name":"CUDDY","year":2006,"lat":44.85916667,"lon":-116.76305556,"state":"ID"}
{"name":"GREEN ACRES","year":2006,"lat":45.34861111,"lon":-116.49527778,"state":"ID"}
{"name":"BLACK BUTTE","year":2006,"lat":45.47027778,"lon":-115.88611111,"state":"ID"}
{"name":"0668 - LAKE GEORGE","year":2006,"lat":44.3075,"lon":-121.81388889,"state":"OR"}
{"name":"0570  BLACK CRATER","year":2006,"lat":44.26083333,"lon":-121.73611111,"state":"OR"}
{"name":"FAMINE LAKE","year":2006,"lat":47.96444444,"lon":-90.71722222,"state":"MN"}
{"name":"ULM PEAK","year":2006,"lat":47.89166667,"lon":-115.98416667,"state":"ID"}
{"name":"CAVITY LAKE","year":2006,"lat":48.09305556,"lon":-90.99527778,"state":"MN"}
{"name":"REDEYE","year":2006,"lat":47.97611111,"lon":-90.55916667,"state":"MN"}
{"name":"TURTLE","year":2006,"lat":47.85111111,"lon":-91.53666667,"state":"MN"}
{"name":"RABBIT","year":2006,"lat":46.40444444,"lon":-114.63694444,"state":"ID"}
{"name":"LINDSEY BAY","year":2006,"lat":30.13583333,"lon":-84.96888889,"state":"FL"}
{"name":"SAUSE","year":2006,"lat":30.53944444,"lon":-88.96611111,"state":"MS"}
{"name":"SKATE","year":2006,"lat":32.95611111,"lon":-108.13027778,"state":"NM"}
{"name":"BLACK BIRD MINE WFU","year":2006,"lat":38.44805556,"lon":-112.13472222,"state":"UT"}
{"name":"PLOWBOY","year":2006,"lat":48.77916667,"lon":-116.9525,"state":"ID"}
{"name":"HUGHES EAST","year":2006,"lat":48.96166667,"lon":-116.98361111,"state":"ID"}
{"name":"DOG VALLEY","year":2006,"lat":38.67555556,"lon":-112.52527778,"state":"UT"}
{"name":"SOUTH WATER HOLLOW","year":2006,"lat":38.87388889,"lon":-111.3975,"state":"UT"}
{"name":"SUNSET CANYON","year":2006,"lat":38.83722222,"lon":-112.3175,"state":"UT"}
{"name":"ISABELLE","year":2006,"lat":41.12972222,"lon":-106.09805556,"state":"WY"}
{"name":"DEVILS DEN","year":2006,"lat":39.35388889,"lon":-112.26833333,"state":"UT"}
{"name":"SULPHUR MOUNTAIN","year":2006,"lat":34.35666667,"lon":-93.78666667,"state":"AR"}
{"name":"ELKHORN","year":2006,"lat":45.34666667,"lon":-114.57388889,"state":"ID"}
{"name":"MAGGIE","year":2006,"lat":36.26333333,"lon":-118.61472222,"state":"CA"}
{"name":"SHELDON PEAK","year":2006,"lat":44.70111111,"lon":-114.55361111,"state":"ID"}
{"name":"TAMARACK","year":2006,"lat":36.32055556,"lon":-118.40305556,"state":"CA"}
{"name":"BRODER WFU","year":2006,"lat":36.14194444,"lon":-118.18555556,"state":"CA"}
{"name":"BECK WFU","year":2006,"lat":36.16666667,"lon":-118.16888889,"state":"CA"}
{"name":"TINPAN","year":2006,"lat":48.16416667,"lon":-120.72583333,"state":"WA"}
{"name":"THORN CREEK","year":2006,"lat":44.31166667,"lon":-119.43472222,"state":"OR"}
{"name":"MILLARD","year":2006,"lat":34.34166667,"lon":-116.76666667,"state":"CA"}
{"name":"BATTLE MOUNTAIN","year":2006,"lat":43.28972222,"lon":-109.96638889,"state":"WY"}
{"name":"JIM CREEK WFU","year":2006,"lat":43.1975,"lon":-109.92333333,"state":"WY"}
{"name":"PURDY","year":2006,"lat":43.57305556,"lon":-110.14055556,"state":"WY"}
{"name":"LITTLE VENUS","year":2006,"lat":44.01194444,"lon":-109.45833333,"state":"WY"}
{"name":"TEN FIRE","year":2007,"lat":33.44861111,"lon":-108.33361111,"state":"NM"}
{"name":"HL","year":2007,"lat":33.56361111,"lon":-108.45916667,"state":"NM"}
{"name":"BIRDIE","year":2007,"lat":34.88805556,"lon":-111.53861111,"state":"AZ"}
{"name":"RATTLESNAKE","year":2007,"lat":45.42916667,"lon":-115.63666667,"state":"ID"}
{"name":"CONCORD","year":2007,"lat":45.59555556,"lon":-115.73472222,"state":"ID"}
{"name":"LAMPHERE","year":2007,"lat":33.56361111,"lon":-109.08583333,"state":"AZ"}
{"name":"GRANITE","year":2007,"lat":33.09083333,"lon":-107.71944444,"state":"NM"}
{"name":"WADE HILL","year":2007,"lat":43.81416667,"lon":-104.51444444,"state":"WY"}
{"name":"SAGE","year":2007,"lat":37.13,"lon":-118.385,"state":"CA"}
{"name":"WOOD CREEK","year":2007,"lat":43.52277778,"lon":-115.865,"state":"ID"}
{"name":"TRAPPER RIDGE","year":2007,"lat":44.02277778,"lon":-115.35277778,"state":"ID"}
{"name":"CHINA","year":2007,"lat":41.84305556,"lon":-122.72277778,"state":"CA"}
{"name":"BEAR CANYON FIRE","year":2007,"lat":43.86666667,"lon":-119.46472222,"state":"OR"}
{"name":"CITADEL","year":2007,"lat":44.32194444,"lon":-109.53833333,"state":"WY"}
{"name":"SOLDIER CREEK COMPLE","year":2007,"lat":42.68277778,"lon":-103.62944444,"state":"NE"}
{"name":"LOCO","year":2007,"lat":33.11305556,"lon":-108.09,"state":"NM"}
{"name":"RED HILL","year":2007,"lat":45.01527778,"lon":-119.44972222,"state":"OR"}
{"name":"LOST","year":2007,"lat":45.25194444,"lon":-106.23916667,"state":"MT"}
{"name":"WHEELER","year":2007,"lat":40.12861111,"lon":-120.63611111,"state":"CA"}
{"name":"BALLS CANYON","year":2007,"lat":39.68305556,"lon":-120.0375,"state":"CA"}
{"name":"NORTH","year":2007,"lat":34.40333333,"lon":-118.26083333,"state":"CA"}
{"name":"HAY CREEK","year":2007,"lat":45.65388889,"lon":-102.56944444,"state":"SD"}
{"name":"MIDDLE FORK","year":2007,"lat":46.84,"lon":-110.43944444,"state":"MT"}
{"name":"SLIDE","year":2007,"lat":36.65416667,"lon":-112.43861111,"state":"AZ"}
{"name":"SHEEP TRAIL","year":2007,"lat":44.34944444,"lon":-115.49361111,"state":"ID"}
{"name":"TROUT MEADOWS","year":2007,"lat":44.95222222,"lon":-118.48527778,"state":"OR"}
{"name":"OTTER CREEK","year":2007,"lat":44.98555556,"lon":-118.78888889,"state":"OR"}
{"name":"HIDDEN","year":2007,"lat":46.35305556,"lon":-114.58861111,"state":"ID"}
{"name":"LITTLE GRIDER","year":2007,"lat":41.79972222,"lon":-123.42777778,"state":"CA"}
{"name":"RED BLUFF","year":2007,"lat":44.74138889,"lon":-114.87138889,"state":"ID"}
{"name":"DEEP CREEK","year":2007,"lat":45.24888889,"lon":-116.6875,"state":"ID"}
{"name":"GRAY'S CREEK","year":2007,"lat":44.55861111,"lon":-116.36277778,"state":"ID"}
{"name":"FOOL CREEK","year":2007,"lat":47.92333333,"lon":-112.98805556,"state":"MT"}
{"name":"AHORN","year":2007,"lat":47.53,"lon":-113.04666667,"state":"MT"}
{"name":"CALBICK","year":2007,"lat":46.11416667,"lon":-113.18722222,"state":"MT"}
{"name":"RAILLEY","year":2007,"lat":47.29944444,"lon":-113.28083333,"state":"MT"}
{"name":"TURTLEHEAD","year":2007,"lat":47.67333333,"lon":-113.21916667,"state":"MT"}
{"name":"CORPORAL","year":2007,"lat":47.89166667,"lon":-113.42222222,"state":"MT"}
{"name":"BIG CREEK WFU","year":2007,"lat":40.47555556,"lon":-112.645,"state":"UT"}
{"name":"PATTERSON","year":2007,"lat":33.86055556,"lon":-108.46388889,"state":"NM"}
{"name":"GOAT WFU","year":2007,"lat":45.04305556,"lon":-115.285,"state":"ID"}
{"name":"COTTONWOOD WFU","year":2007,"lat":44.91916667,"lon":-115.04972222,"state":"ID"}
{"name":"TAG WFU","year":2007,"lat":45.405,"lon":-114.875,"state":"ID"}
{"name":"POE CABIN","year":2007,"lat":45.69416667,"lon":-116.47777778,"state":"ID"}
{"name":"BATTLE CREEK","year":2007,"lat":45.30916667,"lon":-116.68611111,"state":"OR"}
{"name":"GRIZZLY RIDGE","year":2007,"lat":45.61833333,"lon":-116.80111111,"state":"OR"}
{"name":"FLETCHER","year":2007,"lat":41.98833333,"lon":-120.54472222,"state":"CA"}
{"name":"GRANITE CREEK","year":2007,"lat":43.39861111,"lon":-110.44888889,"state":"WY"}
{"name":"HICKS PARK","year":2007,"lat":45.29583333,"lon":-110.23166667,"state":"MT"}
{"name":"TROUT CREEK","year":2007,"lat":45.08888889,"lon":-117.49666667,"state":"OR"}
{"name":"BEAR WFU","year":2007,"lat":43.23638889,"lon":-111.375,"state":"ID"}
{"name":"SADDLE GULCH","year":2007,"lat":45.53138889,"lon":-116.72805556,"state":"OR"}
{"name":"LUCKY","year":2007,"lat":44.30861111,"lon":-115.89611111,"state":"ID"}
{"name":"LIGHTNING","year":2007,"lat":44.17611111,"lon":-115.83972222,"state":"ID"}
{"name":"WICKED CREEK","year":2007,"lat":45.23972222,"lon":-110.52555556,"state":"MT"}
{"name":"NORTH FORK","year":2007,"lat":44.69305556,"lon":-115.84,"state":"ID"}
{"name":"ROMBO","year":2007,"lat":45.74833333,"lon":-114.235,"state":"MT"}
{"name":"COLUMBINE","year":2007,"lat":44.4075,"lon":-110.20777778,"state":"WY"}
{"name":"JIM CANYON","year":2007,"lat":41.95638889,"lon":-113.20138889,"state":"UT"}
{"name":"MONUMENTAL","year":2007,"lat":44.495,"lon":-115.69722222,"state":"ID"}
{"name":"SANDY","year":2007,"lat":44.65166667,"lon":-115.47194444,"state":"ID"}
{"name":"RIORDON","year":2007,"lat":44.82611111,"lon":-115.45083333,"state":"ID"}
{"name":"YELLOW","year":2007,"lat":44.6,"lon":-115.73333333,"state":"ID"}
{"name":"DRAKE","year":2007,"lat":45.9875,"lon":-115.12833333,"state":"ID"}
{"name":"PROFILE","year":2007,"lat":44.98833333,"lon":-115.45388889,"state":"ID"}
{"name":"CHAIN","year":2007,"lat":46.32833333,"lon":-114.88722222,"state":"ID"}
{"name":"LIZARD","year":2007,"lat":46.23111111,"lon":-115.11583333,"state":"ID"}
{"name":"DOG","year":2007,"lat":46.105,"lon":-114.835,"state":"ID"}
{"name":"RAINES","year":2007,"lat":45.31444444,"lon":-115.54138889,"state":"ID"}
{"name":"ZENA CREEK","year":2007,"lat":45.06972222,"lon":-115.72944444,"state":"ID"}
{"name":"EL CAPITAN WEST","year":2007,"lat":45.98361111,"lon":-114.46805556,"state":"ID"}
{"name":"PATSY ANNE","year":2007,"lat":45.865,"lon":-114.47583333,"state":"ID"}
{"name":"ELKHORN RIDGE","year":2007,"lat":45.29,"lon":-114.51,"state":"ID"}
{"name":"HARRINGTON RIDGE","year":2007,"lat":45.51722222,"lon":-114.88416667,"state":"ID"}
{"name":"MAGRUDER MTN #1","year":2007,"lat":45.70055556,"lon":-114.81472222,"state":"ID"}
{"name":"GRIZZLY","year":2007,"lat":46.10333333,"lon":-114.92666667,"state":"ID"}
{"name":"BATTLE","year":2007,"lat":46.22833333,"lon":-114.59166667,"state":"ID"}
{"name":"SHORTOFF","year":2007,"lat":35.84,"lon":-81.89055556,"state":"NC"}
{"name":"CLEAR SAGE","year":2007,"lat":45.22027778,"lon":-114.43805556,"state":"ID"}
{"name":"PAPOOSE","year":2007,"lat":45.27,"lon":-114.805,"state":"ID"}
{"name":"BONE CREEK","year":2007,"lat":44.60055556,"lon":-107.67083333,"state":"WY"}
{"name":"LITTLE GOOSE","year":2007,"lat":44.585,"lon":-107.07083333,"state":"WY"}
{"name":"WARM SPRINGS","year":2007,"lat":44.38333333,"lon":-117.07055556,"state":"ID"}
{"name":"DOMKE","year":2007,"lat":48.16722222,"lon":-120.59944444,"state":"WA"}
{"name":"RATTLESNAKE CREEK","year":2007,"lat":46.75416667,"lon":-121.23472222,"state":"WA"}
{"name":"WHISKEY","year":2007,"lat":48.84944444,"lon":-119.46333333,"state":"WA"}
{"name":"HORTON","year":2007,"lat":45.11888889,"lon":-116.07194444,"state":"ID"}
{"name":"PIGEON BRANCH","year":2007,"lat":35.99194444,"lon":-82.91222222,"state":"TN"}
{"name":"SHOWERBATH","year":2007,"lat":44.62083333,"lon":-114.62222222,"state":"ID"}
{"name":"MERIWETHER","year":2007,"lat":46.86972222,"lon":-111.88222222,"state":"MT"}
{"name":"BOUNDARY JUNCTION","year":2007,"lat":46.37305556,"lon":-115.58166667,"state":"ID"}
{"name":"BLACK PINE 2","year":2007,"lat":42.20194444,"lon":-113.2175,"state":"ID"}
{"name":"BALL POINT","year":2007,"lat":45.3,"lon":-121.36666667,"state":"OR"}
{"name":"LOON LAKE","year":2007,"lat":45.13777778,"lon":-115.85583333,"state":"ID"}
{"name":"VAN HORN","year":2007,"lat":44.76527778,"lon":-114.29583333,"state":"ID"}
{"name":"CHITTY","year":2007,"lat":33.57027778,"lon":-109.38083333,"state":"AZ"}
{"name":"FRENCH CREEK WFU","year":2007,"lat":39.77083333,"lon":-111.23611111,"state":"UT"}
{"name":"CATHEDRAL","year":2007,"lat":39.14777778,"lon":-115.48916667,"state":"NV"}
{"name":"SKYLAND","year":2007,"lat":48.27138889,"lon":-113.39527778,"state":"MT"}
{"name":"TOAD","year":2007,"lat":37.70666667,"lon":-111.83027778,"state":"UT"}
{"name":"SILVER FIRE","year":2007,"lat":43.855,"lon":-119.68166667,"state":"OR"}
{"name":"GRAPPLE","year":2007,"lat":44.0375,"lon":-118.82972222,"state":"OR"}
{"name":"GW","year":2007,"lat":44.34305556,"lon":-121.80638889,"state":"OR"}
{"name":"SQUAW","year":2007,"lat":33.3875,"lon":-109.2625,"state":"AZ"}
{"name":"BRIDGE","year":2007,"lat":46.3675,"lon":-114.57111111,"state":"ID"}
{"name":"PATTENGAIL","year":2007,"lat":45.69111111,"lon":-113.25638889,"state":"MT"}
{"name":"POISON CREEK","year":2007,"lat":43.99777778,"lon":-118.80527778,"state":"OR"}
{"name":"EGLEY","year":2007,"lat":43.6675,"lon":-119.43027778,"state":"OR"}
{"name":"RAT CREEK","year":2007,"lat":45.74444444,"lon":-113.80944444,"state":"MT"}
{"name":"CONGER CREEK","year":2007,"lat":47.21638889,"lon":-113.03694444,"state":"MT"}
{"name":"FLORIDA BUGABOO","year":2007,"lat":30.5,"lon":-82.36666667,"state":"FL"}
{"name":"SAWMILL","year":2007,"lat":46.60194444,"lon":-113.70027778,"state":"MT"}
{"name":"FISHER POINT","year":2007,"lat":46.49583333,"lon":-113.66555556,"state":"MT"}
{"name":"WYMAN #2","year":2007,"lat":46.3475,"lon":-113.7425,"state":"MT"}
{"name":"CHIMNEY COMPLEX","year":2007,"lat":45.9875,"lon":-116.89777778,"state":"ID"}
{"name":"DUTCH WILDFIRE USE","year":2007,"lat":35.13972222,"lon":-112.25027778,"state":"AZ"}
{"name":"CASTLE ROCK","year":2007,"lat":43.6375,"lon":-114.56111111,"state":"ID"}
{"name":"WILKINS","year":2007,"lat":34.58916667,"lon":-111.02277778,"state":"AZ"}
{"name":"CANYON","year":2007,"lat":33.37388889,"lon":-108.38416667,"state":"NM"}
{"name":"WOODLAND","year":2007,"lat":33.29583333,"lon":-108.34555556,"state":"NM"}
{"name":"GROUSE","year":2007,"lat":36.27805556,"lon":-118.42166667,"state":"CA"}
{"name":"MIDDLE","year":2007,"lat":43.1475,"lon":-110.86388889,"state":"WY"}
{"name":"HARDSCRABBLE","year":2007,"lat":43.67083333,"lon":-110.12055556,"state":"WY"}
{"name":"POTATO HILL","year":2007,"lat":35.02972222,"lon":-93.62916667,"state":"AR"}
{"name":"BRUSH CREEK","year":2007,"lat":48.33472222,"lon":-114.90138889,"state":"MT"}
{"name":"TWENTY TWO   WFU","year":2008,"lat":35.88277778,"lon":-111.94416667,"state":"AZ"}
{"name":"THREE","year":2008,"lat":41.59972222,"lon":-123.5675,"state":"CA"}
{"name":"JACK WOOD","year":2008,"lat":31.76472222,"lon":-109.16527778,"state":"AZ"}
{"name":"CARIBOU","year":2008,"lat":41.03472222,"lon":-123.00277778,"state":"CA"}
{"name":"BASIN COMPLEX","year":2008,"lat":36.28111111,"lon":-121.65833333,"state":"CA"}
{"name":"REDINGTON","year":2008,"lat":32.60083333,"lon":-110.40388889,"state":"AZ"}
{"name":"COLD","year":2008,"lat":39.84222222,"lon":-120.83666667,"state":"CA"}
{"name":"BEAR MOUNTAIN","year":2008,"lat":33.54222222,"lon":-109.14027778,"state":"AZ"}
{"name":"BIG SPRING","year":2008,"lat":34.77055556,"lon":-106.38305556,"state":"NM"}
{"name":"OLIVER","year":2008,"lat":37.48722222,"lon":-119.75388889,"state":"CA"}
{"name":"PANTHER","year":2008,"lat":41.5925,"lon":-123.43166667,"state":"CA"}
{"name":"DARK","year":2008,"lat":41.61555556,"lon":-123.57694444,"state":"CA"}
{"name":"EAGLE","year":2008,"lat":40.73416667,"lon":-123.16666667,"state":"CA"}
{"name":"ZEIGLER","year":2008,"lat":40.86666667,"lon":-123.475,"state":"CA"}
{"name":"ROCKY","year":2008,"lat":32.44777778,"lon":-104.92916667,"state":"NM"}
{"name":"IRONSIDE","year":2008,"lat":40.83333333,"lon":-123.43416667,"state":"CA"}
{"name":"PETERSON","year":2008,"lat":40.9125,"lon":-121.34166667,"state":"CA"}
{"name":"HELLS HALF SADDLE","year":2008,"lat":45.68833333,"lon":-114.61277778,"state":"ID"}
{"name":"WOOD HUMP","year":2008,"lat":45.54055556,"lon":-114.50944444,"state":"ID"}
{"name":"ANTHONY MILNE","year":2008,"lat":41.505,"lon":-123.18166667,"state":"CA"}
{"name":"BRIDGER","year":2008,"lat":37.52694444,"lon":-103.76944444,"state":"CO"}
{"name":"DISTILLERY","year":2008,"lat":32.06166667,"lon":-110.52916667,"state":"AZ"}
{"name":"MILL","year":2008,"lat":39.47833333,"lon":-123.04333333,"state":"CA"}
{"name":"VENTURE","year":2008,"lat":40.99333333,"lon":-121.60166667,"state":"CA"}
{"name":"BROWN","year":2008,"lat":46.5275,"lon":-103.875,"state":"ND"}
{"name":"ELBOW","year":2008,"lat":46.21305556,"lon":-114.66333333,"state":"ID"}
{"name":"WARM SPRINGS","year":2008,"lat":45.83416667,"lon":-114.97833333,"state":"ID"}
{"name":"MINERS","year":2008,"lat":40.66972222,"lon":-123.30555556,"state":"CA"}
{"name":"LIME","year":2008,"lat":40.51833333,"lon":-123.42277778,"state":"CA"}
{"name":"DEADSHOT","year":2008,"lat":40.48388889,"lon":-122.92972222,"state":"CA"}
{"name":"SLIDE","year":2008,"lat":40.66611111,"lon":-123.52027778,"state":"CA"}
{"name":"TELEPHONE","year":2008,"lat":40.40666667,"lon":-123.13194444,"state":"CA"}
{"name":"TROUGH #1","year":2008,"lat":40.20055556,"lon":-123.12472222,"state":"CA"}
{"name":"NOBLE","year":2008,"lat":40.32583333,"lon":-122.96222222,"state":"CA"}
{"name":"DEERLICK","year":2008,"lat":40.46333333,"lon":-122.88277778,"state":"CA"}
{"name":"IRON","year":2008,"lat":40.14583333,"lon":-122.86611111,"state":"CA"}
{"name":"BIG","year":2008,"lat":39.42888889,"lon":-123.06416667,"state":"CA"}
{"name":"MONKEY  ROCK","year":2008,"lat":39.55222222,"lon":-122.96138889,"state":"CA"}
{"name":"HORSE MOUNTAIN","year":2008,"lat":42.37416667,"lon":-123.74416667,"state":"OR"}
{"name":"BACK","year":2008,"lat":39.375,"lon":-122.97555556,"state":"CA"}
{"name":"PORCUPINE","year":2008,"lat":45.72055556,"lon":-115.09805556,"state":"ID"}
{"name":"VINEGAR","year":2008,"lat":40.06722222,"lon":-122.93083333,"state":"CA"}
{"name":"CUB","year":2008,"lat":40.17916667,"lon":-121.47027778,"state":"CA"}
{"name":"ONION 2","year":2008,"lat":40.18083333,"lon":-121.56666667,"state":"CA"}
{"name":"LITTLE","year":2008,"lat":39.77333333,"lon":-121.25027778,"state":"CA"}
{"name":"SOUTH","year":2008,"lat":39.70611111,"lon":-121.25055556,"state":"CA"}
{"name":"BONANZA","year":2008,"lat":40.2225,"lon":-123.22222222,"state":"CA"}
{"name":"HOT AIR","year":2008,"lat":33.475,"lon":-109.3875,"state":"AZ"}
{"name":"THE MILL WFU","year":2008,"lat":36.56888889,"lon":-112.3725,"state":"AZ"}
{"name":"GUNBARREL","year":2008,"lat":44.495,"lon":-109.8225,"state":"WY"}
{"name":"E. SLIDE ROCK RIDGE","year":2008,"lat":41.78,"lon":-115.32666667,"state":"NV"}
{"name":"JACK CREEK","year":2008,"lat":47.50722222,"lon":-120.93444444,"state":"WA"}
{"name":"STEVENS CREEK","year":2007,"lat":40.97166667,"lon":-115.26361111,"state":"NV"}
{"name":"GOVERNMENT","year":2008,"lat":39.21555556,"lon":-120.64861111,"state":"CA"}
{"name":"RATTLE","year":2008,"lat":43.32944444,"lon":-122.54388889,"state":"OR"}
{"name":"LONG BRANCH-JACK","year":2008,"lat":39.95166667,"lon":-121.33388889,"state":"CA"}
{"name":"WEST ELK","year":2008,"lat":38.55138889,"lon":-107.26666667,"state":"CO"}
{"name":"OLD 15TH","year":2008,"lat":35.92277778,"lon":-83.06722222,"state":"TN"}
{"name":"CLOVER","year":2008,"lat":36.11666667,"lon":-118.13361111,"state":"CA"}
{"name":"SHINGLE MILL WFU","year":2008,"lat":42.23027778,"lon":-110.70555556,"state":"WY"}
{"name":"GNARL RIDGE","year":2008,"lat":45.35222222,"lon":-121.635,"state":"OR"}
{"name":"HONEYBEE","year":2008,"lat":35.16666667,"lon":-118.05222222,"state":"CA"}
{"name":"AT&T","year":2008,"lat":36.27777778,"lon":-102.47416667,"state":"TX"}
{"name":"MILL","year":2008,"lat":41.56333333,"lon":-123.59472222,"state":"CA"}
{"name":"BLUE 2","year":2008,"lat":41.56527778,"lon":-123.82055556,"state":"CA"}
{"name":"HALF","year":2008,"lat":40.77111111,"lon":-123.52777778,"state":"CA"}
{"name":"JAKE","year":2008,"lat":41.35638889,"lon":-123.37611111,"state":"CA"}
{"name":"HAYPRESS","year":2008,"lat":41.45333333,"lon":-123.39305556,"state":"CA"}
{"name":"MERRILL","year":2008,"lat":41.42527778,"lon":-123.43111111,"state":"CA"}
{"name":"LOST EDEN","year":2008,"lat":34.62388889,"lon":-111.26333333,"state":"AZ"}
{"name":"MIDDLE FORK","year":2008,"lat":42.71916667,"lon":-122.25611111,"state":"OR"}
{"name":"SCOTCHMAN","year":2008,"lat":39.34944444,"lon":-120.77916667,"state":"CA"}
{"name":"FALL","year":2008,"lat":39.36,"lon":-120.69666667,"state":"CA"}
{"name":"WESTVILLE","year":2008,"lat":39.16333333,"lon":-120.66,"state":"CA"}
{"name":"WILLOW WFU","year":2008,"lat":44.52361111,"lon":-111.56444444,"state":"ID"}
{"name":"TIMBER WFU","year":2008,"lat":44.50166667,"lon":-112.0225,"state":"ID"}
{"name":"BUCKHORN","year":2008,"lat":40.86666667,"lon":-123.28527778,"state":"CA"}
{"name":"CAREY","year":2008,"lat":41.07222222,"lon":-123.3025,"state":"CA"}
{"name":"CEDAR","year":2008,"lat":40.78138889,"lon":-123.43361111,"state":"CA"}
{"name":"MOTION","year":2008,"lat":40.71666667,"lon":-122.43444444,"state":"CA"}
{"name":"PIT","year":2008,"lat":39.97,"lon":-121.29638889,"state":"CA"}
{"name":"TEHIPITE","year":2008,"lat":36.90361111,"lon":-118.80111111,"state":"CA"}
{"name":"SOUTH BARKER","year":2008,"lat":43.62527778,"lon":-115.22888889,"state":"ID"}
{"name":"WHITE TANK","year":2008,"lat":31.57,"lon":-111.14361111,"state":"AZ"}
{"name":"NUEVO FIRE","year":2008,"lat":31.49527778,"lon":-111.17027778,"state":"AZ"}
{"name":"RUSH CREEK","year":2008,"lat":44.98722222,"lon":-114.98722222,"state":"ID"}
{"name":"WESTY","year":2008,"lat":45.05888889,"lon":-114.98583333,"state":"ID"}
{"name":"CAYUSE","year":2008,"lat":45.505,"lon":-114.59333333,"state":"ID"}
{"name":"SCOTCH","year":2008,"lat":39.78611111,"lon":-121.18722222,"state":"CA"}
{"name":"COLD SPRINGS","year":2008,"lat":46.11944444,"lon":-121.49972222,"state":"WA"}
{"name":"0792   SUMMIT SPRING","year":2008,"lat":44.42361111,"lon":-121.50555556,"state":"OR"}
{"name":"MILL","year":2008,"lat":40.15027778,"lon":-121.8475,"state":"CA"}
{"name":"SMOKEY","year":2008,"lat":40.05472222,"lon":-121.62555556,"state":"CA"}
{"name":"YELLOW","year":2008,"lat":40.07555556,"lon":-123.09638889,"state":"CA"}
{"name":"NORTH MTN","year":2008,"lat":37.895,"lon":-119.91805556,"state":"CA"}
{"name":"0644  OCHOCOFIREUSE","year":2008,"lat":44.34055556,"lon":-119.71277778,"state":"OR"}
{"name":"0741 BRIDGE CREEK","year":2008,"lat":44.48277778,"lon":-120.21722222,"state":"OR"}
{"name":"GROUSE","year":2008,"lat":40.11972222,"lon":-122.98361111,"state":"CA"}
{"name":"MARTEEN WFU","year":2008,"lat":35.44333333,"lon":-112.02277778,"state":"AZ"}
{"name":"STEIN","year":2008,"lat":40.80722222,"lon":-122.09777778,"state":"CA"}
{"name":"COAL CREEK","year":2008,"lat":38.98,"lon":-108.20305556,"state":"CO"}
{"name":"CORRAL","year":2008,"lat":40.875,"lon":-120.875,"state":"CA"}
{"name":"PIONEER","year":2009,"lat":33.2775,"lon":-110.77305556,"state":"AZ"}
{"name":"BRIDGE","year":2009,"lat":37.54583333,"lon":-112.275,"state":"UT"}
{"name":"SKELETON","year":2009,"lat":31.56444444,"lon":-109.00583333,"state":"NM"}
{"name":"HORSE VALLEY","year":2009,"lat":37.76111111,"lon":-112.65277778,"state":"UT"}
{"name":"EIGHTMILE CREEK","year":2009,"lat":44.155,"lon":-115.41333333,"state":"ID"}
{"name":"WILLOW","year":2009,"lat":33.75944444,"lon":-108.52888889,"state":"NM"}
{"name":"FORKS","year":2009,"lat":37.26805556,"lon":-118.58388889,"state":"CA"}
{"name":"RIM","year":2009,"lat":34.42972222,"lon":-111.23527778,"state":"AZ"}
{"name":"MILL FLAT","year":2009,"lat":37.43833333,"lon":-113.39277778,"state":"UT"}
{"name":"LAKE FORK","year":2009,"lat":39.90361111,"lon":-111.52666667,"state":"UT"}
{"name":"KELSAY BUTTE","year":2009,"lat":44.92472222,"lon":-118.65138889,"state":"OR"}
{"name":"BIG POLE","year":2009,"lat":40.61361111,"lon":-112.66638889,"state":"UT"}
{"name":"REDSPOT","year":2009,"lat":41.15138889,"lon":-123.40138889,"state":"CA"}
{"name":"REAL","year":2009,"lat":34.865,"lon":-111.56138889,"state":"AZ"}
{"name":"RUBY","year":2009,"lat":35.91416667,"lon":-111.99972222,"state":"AZ"}
{"name":"BOARD","year":2009,"lat":33.97583333,"lon":-110.92694444,"state":"AZ"}
{"name":"KOOTENAI CREEK","year":2009,"lat":46.5525,"lon":-114.23527778,"state":"MT"}
{"name":"LOAF","year":2009,"lat":40.68333333,"lon":-121.46666667,"state":"CA"}
{"name":"BROWN","year":2009,"lat":40.83388889,"lon":-121.54222222,"state":"CA"}
{"name":"MOORE","year":2009,"lat":33.19444444,"lon":-108.04222222,"state":"NM"}
{"name":"GUTHRIE","year":2009,"lat":32.91194444,"lon":-110.66111111,"state":"AZ"}
{"name":"GOOSE","year":2009,"lat":40.955,"lon":-121.79444444,"state":"CA"}
{"name":"CHALK","year":2009,"lat":40.98055556,"lon":-121.81388889,"state":"CA"}
{"name":"BIG SHEEP RIDGE","year":2009,"lat":45.40416667,"lon":-117.57194444,"state":"OR"}
{"name":"RAE","year":2009,"lat":35.93805556,"lon":-112.07527778,"state":"AZ"}
{"name":"MILLER","year":2009,"lat":35.88055556,"lon":-112.065,"state":"AZ"}
{"name":"ANDERSON","year":2009,"lat":35.84527778,"lon":-111.85916667,"state":"AZ"}
{"name":"INDEPENDENCE","year":2009,"lat":34.49888889,"lon":-111.355,"state":"AZ"}
{"name":"LAWRENCE MTN","year":2009,"lat":48.615,"lon":-115.42388889,"state":"MT"}
{"name":"SAN MIGUEL","year":2009,"lat":35.73,"lon":-106.34888889,"state":"NM"}
{"name":"GRANITE","year":2009,"lat":36.15361111,"lon":-118.22472222,"state":"CA"}
{"name":"LION","year":2009,"lat":36.13361111,"lon":-118.29888889,"state":"CA"}
{"name":"PIPELINE","year":2009,"lat":36.59444444,"lon":-112.36638889,"state":"AZ"}
{"name":"TUMBLEBUG","year":2009,"lat":43.47416667,"lon":-122.10194444,"state":"OR"}
{"name":"CAROLINA BAY","year":2009,"lat":34.75,"lon":-76.95,"state":"NC"}
{"name":"RAPTOR","year":2009,"lat":34.84666667,"lon":-111.46027778,"state":"AZ"}
{"name":"BRADFIELD","year":2009,"lat":37.62972222,"lon":-108.66361111,"state":"CO"}
{"name":"NARRAGUINNEP","year":2009,"lat":37.64638889,"lon":-108.71833333,"state":"CO"}
{"name":"GABE CREEK","year":2009,"lat":47.41833333,"lon":-113.31805556,"state":"MT"}
{"name":"SLIDE","year":2009,"lat":45.60083333,"lon":-114.91666667,"state":"ID"}
{"name":"DURFEE","year":2009,"lat":34.5275,"lon":-110.77111111,"state":"AZ"}
{"name":"LILY LAKE","year":2009,"lat":45.62388889,"lon":-113.31694444,"state":"MT"}
{"name":"FRACAS","year":2009,"lat":36.66416667,"lon":-112.25027778,"state":"AZ"}
{"name":"RED","year":2009,"lat":35.51055556,"lon":-111.88833333,"state":"AZ"}
{"name":"BIELENBURG","year":2009,"lat":46.28805556,"lon":-112.96305556,"state":"MT"}
{"name":"TABLE MOUNTAIN","year":2009,"lat":46.06361111,"lon":-113.71666667,"state":"MT"}
{"name":"WAGON DRAW","year":2009,"lat":34.48222222,"lon":-110.8,"state":"AZ"}
{"name":"WEIMER","year":2009,"lat":34.46166667,"lon":-110.81472222,"state":"AZ"}
{"name":"CROSS","year":2009,"lat":35.0225,"lon":-112.0775,"state":"AZ"}
{"name":"CROSSING","year":2009,"lat":34.41944444,"lon":-110.96722222,"state":"AZ"}
{"name":"WILDHORSE","year":2009,"lat":35.46722222,"lon":-111.91638889,"state":"AZ"}
{"name":"BOZE","year":2009,"lat":43.1525,"lon":-122.53472222,"state":"OR"}
{"name":"TWIN PEAKS","year":2009,"lat":46.62916667,"lon":-121.33666667,"state":"WA"}
{"name":"DISCOVERY","year":2009,"lat":46.50527778,"lon":-121.23388889,"state":"WA"}
{"name":"RAINBOW CREEK","year":2009,"lat":43.1425,"lon":-122.45944444,"state":"OR"}
{"name":"COOPER SPRING","year":2009,"lat":37.79305556,"lon":-109.91111111,"state":"UT"}
{"name":"GIRD END","year":2009,"lat":46.23555556,"lon":-113.88388889,"state":"MT"}
{"name":"LT-17 (BACKBONE)","year":2009,"lat":41.04,"lon":-123.46333333,"state":"CA"}
{"name":"MEASON","year":2009,"lat":33.14194444,"lon":-108.02194444,"state":"NM"}
{"name":"DIAMOND","year":2009,"lat":33.27555556,"lon":-108.03805556,"state":"NM"}
{"name":"RENO","year":2009,"lat":33.60527778,"lon":-109.44388889,"state":"AZ"}
{"name":"TAYLOR","year":2009,"lat":35.00444444,"lon":-111.93333333,"state":"AZ"}
{"name":"BRADY","year":2009,"lat":34.68444444,"lon":-111.48138889,"state":"AZ"}
{"name":"MELENDREZ PASS","year":2009,"lat":31.77083333,"lon":-110.82222222,"state":"AZ"}
{"name":"BOW","year":2009,"lat":34.61333333,"lon":-111.3875,"state":"AZ"}
{"name":"JULY 4TH COMPLEX","year":2009,"lat":34.48472222,"lon":-111.23388889,"state":"AZ"}
{"name":"TUCKER","year":2009,"lat":34.49083333,"lon":-111.16805556,"state":"AZ"}
{"name":"POINT","year":2009,"lat":34.41,"lon":-111.41805556,"state":"AZ"}
{"name":"DOMINGUEZ","year":2009,"lat":38.73888889,"lon":-108.57555556,"state":"CO"}
{"name":"SOLOMON BASIN","year":2009,"lat":38.54111111,"lon":-111.46638889,"state":"UT"}
{"name":"BLANK","year":1992,"lat":45.18333333,"lon":-105.88333333,"state":"MT"}
{"name":"SCOTT","year":1992,"lat":45.44166667,"lon":-115.98833333,"state":"ID"}
{"name":"PORCUPINE CREEK","year":1992,"lat":45.51333333,"lon":-115.81666667,"state":"ID"}
{"name":"CROOKED CREEK","year":1992,"lat":45.47833333,"lon":-115.635,"state":"ID"}
{"name":"GILLESPIE","year":1992,"lat":32.58333333,"lon":-109.82333333,"state":"AZ"}
{"name":"BEAVER","year":1992,"lat":33.39166667,"lon":-108.225,"state":"NM"}
{"name":"CREEL","year":1992,"lat":33.31666667,"lon":-108.41666667,"state":"NM"}
{"name":"GOBBLER","year":1992,"lat":33.18333333,"lon":-108.58333333,"state":"NM"}
{"name":"CUB","year":1992,"lat":33.36666667,"lon":-108.56666667,"state":"NM"}
{"name":"FOOTHILLS","year":1992,"lat":43.48,"lon":-115.68833333,"state":"ID"}
{"name":"GROUSE CREEK","year":1992,"lat":43.56666667,"lon":-115.92666667,"state":"ID"}
{"name":"COUNTY LINE","year":1992,"lat":44.40333333,"lon":-115.325,"state":"ID"}
{"name":"CUB CREEK","year":1992,"lat":44.31666667,"lon":-115.505,"state":"ID"}
{"name":"TIMBER GULCH","year":1992,"lat":41.93333333,"lon":-115.68333333,"state":"NV"}
{"name":"COFFEE POT","year":1992,"lat":41.81666667,"lon":-115.66666667,"state":"NV"}
{"name":"DAWLEY CREEK","year":1992,"lat":40.38333333,"lon":-115.43333333,"state":"NV"}
{"name":"WINDY RIDGE","year":1992,"lat":45.01333333,"lon":-116.81,"state":"ID"}
{"name":"WARM SPRINGS","year":1992,"lat":45.24666667,"lon":-116.17833333,"state":"ID"}
{"name":"FRENCH CREEK","year":1992,"lat":45.41666667,"lon":-116.02,"state":"ID"}
{"name":"PATROL/BEAR CREEK","year":1992,"lat":45.435,"lon":-114.92833333,"state":"ID"}
{"name":"CAMP CREEK","year":1992,"lat":44.88333333,"lon":-115.64833333,"state":"ID"}
{"name":"HORSEFLY","year":1992,"lat":45.36666667,"lon":-114.3,"state":"ID"}
{"name":"LAKE","year":1992,"lat":45.28333333,"lon":-114.48333333,"state":"ID"}
{"name":"TRAPPER","year":1992,"lat":42.12138889,"lon":-114.17555556,"state":"ID"}
{"name":"WILLOW","year":1992,"lat":43.62527778,"lon":-115.11361111,"state":"ID"}
{"name":"RAINBOW","year":1992,"lat":37.55,"lon":-119.095,"state":"CA"}
{"name":"ABERDEEN","year":1992,"lat":36.99,"lon":-118.31833333,"state":"CA"}
{"name":"TIMBER","year":1992,"lat":41.625,"lon":-121.28666667,"state":"CA"}
{"name":"ROBINSON SPRING","year":1992,"lat":42.26,"lon":-120.96833333,"state":"OR"}
{"name":"LIBERTY FARM","year":1992,"lat":30.02166667,"lon":-84.83833333,"state":"FL"}
{"name":"JUNIPER SPRINGS","year":1992,"lat":29.21166667,"lon":-81.68666667,"state":"FL"}
{"name":"YLE","year":1993,"lat":32.59,"lon":-110.405,"state":"AZ"}
{"name":"PIETY","year":1993,"lat":32.39666667,"lon":-110.57166667,"state":"AZ"}
{"name":"INDIAN","year":1993,"lat":33.4,"lon":-108.08333333,"state":"NM"}
{"name":"WHISKEY","year":1993,"lat":33.40166667,"lon":-107.86833333,"state":"NM"}
{"name":"BELL","year":1993,"lat":33.41666667,"lon":-108.16666667,"state":"NM"}
{"name":"STONE","year":1993,"lat":33.66666667,"lon":-107.78333333,"state":"NM"}
{"name":"BLACKHAWK","year":1993,"lat":33.31666667,"lon":-107.80166667,"state":"NM"}
{"name":"BRUSH","year":1993,"lat":33.08333333,"lon":-108.5,"state":"NM"}
{"name":"CLEAR","year":1993,"lat":33.355,"lon":-108.41333333,"state":"NM"}
{"name":"STRAW","year":1993,"lat":33.25166667,"lon":-108.38,"state":"NM"}
{"name":"IRON","year":1993,"lat":33.39666667,"lon":-108.495,"state":"NM"}
{"name":"CLAYTON","year":1993,"lat":33.37333333,"lon":-108.50333333,"state":"NM"}
{"name":"FRIJOLES","year":1993,"lat":35.90833333,"lon":-105.83166667,"state":"NM"}
{"name":"QUEMADO","year":1993,"lat":35.96166667,"lon":-105.79166667,"state":"NM"}
{"name":"EDWARDS","year":1993,"lat":33.83333333,"lon":-111.35,"state":"AZ"}
{"name":"BIG MOUNTAIN","year":1993,"lat":34.94166667,"lon":-83.14,"state":"GA"}
{"name":"JUNIPER 34","year":1993,"lat":29.2,"lon":-81.71666667,"state":"FL"}
{"name":"MARKHAM","year":1993,"lat":32.46333333,"lon":-110.38666667,"state":"AZ"}
{"name":"ANN","year":1994,"lat":46.275,"lon":-113.84333333,"state":"MT"}
{"name":"MAGRUDER RIDGE 2","year":1994,"lat":45.73166667,"lon":-114.785,"state":"ID"}
{"name":"MANKATO","year":1994,"lat":48.84,"lon":-117.07666667,"state":"WA"}
{"name":"SIAM","year":1994,"lat":46.85666667,"lon":-114.93833333,"state":"ID"}
{"name":"FREEZEOUT","year":1994,"lat":46.44666667,"lon":-114.95333333,"state":"ID"}
{"name":"BIG SAND","year":1994,"lat":46.32333333,"lon":-114.50333333,"state":"ID"}
{"name":"FERN CREEK","year":1994,"lat":46.43666667,"lon":-114.5,"state":"ID"}
{"name":"HIDDEN CREEK","year":1994,"lat":46.36,"lon":-114.57333333,"state":"ID"}
{"name":"CORSON COUNTY","year":1994,"lat":45.53333333,"lon":-101.91666667,"state":"SD"}
{"name":"SLIM RIDGE","year":1994,"lat":47.85833333,"lon":-113.22,"state":"MT"}
{"name":"DEAN RIDGE","year":1994,"lat":47.95166667,"lon":-113.27166667,"state":"MT"}
{"name":"HELEN CREEK","year":1994,"lat":47.71,"lon":-113.33166667,"state":"MT"}
{"name":"PIVOT MOUNTAIN","year":1994,"lat":47.90666667,"lon":-113.20666667,"state":"MT"}
{"name":"LITTLE WOLF","year":1994,"lat":48.30333333,"lon":-114.83333333,"state":"MT"}
{"name":"BLACK BUTTE","year":1994,"lat":45.67,"lon":-109.99166667,"state":"MT"}
{"name":"SMITH CREEK","year":1994,"lat":46.235,"lon":-110.39666667,"state":"MT"}
{"name":"DECKARD FLATS","year":1994,"lat":45.04,"lon":-110.62333333,"state":"MT"}
{"name":"NORTH FORK BIG CREEK","year":1994,"lat":48.75333333,"lon":-115.48833333,"state":"MT"}
{"name":"WEBB KNOB","year":1994,"lat":48.80833333,"lon":-115.34166667,"state":"MT"}
{"name":"HIGH ONE","year":1994,"lat":48.90833333,"lon":-114.92833333,"state":"MT"}
{"name":"UPPER FOWLER","year":1994,"lat":48.78166667,"lon":-115.58833333,"state":"MT"}
{"name":"SMITH PEAK","year":1994,"lat":48.42833333,"lon":-116.11833333,"state":"ID"}
{"name":"FISH FRY","year":1994,"lat":48.86833333,"lon":-115.565,"state":"MT"}
{"name":"ROBERTS","year":1994,"lat":48.48,"lon":-116.07833333,"state":"ID"}
{"name":"STUDEBAKER","year":1994,"lat":48.575,"lon":-115.77833333,"state":"MT"}
{"name":"PULPIT","year":1994,"lat":48.525,"lon":-115.78,"state":"MT"}
{"name":"SCENERY 1","year":1994,"lat":48.43333333,"lon":-115.66666667,"state":"MT"}
{"name":"SCENERY 2","year":1994,"lat":48.43333333,"lon":-115.71666667,"state":"MT"}
{"name":"SHEEP RANGE 3","year":1994,"lat":48.48833333,"lon":-115.71333333,"state":"MT"}
{"name":"HENRY PEAK","year":1994,"lat":47.425,"lon":-114.76,"state":"MT"}
{"name":"RAPID RIVER","year":1994,"lat":45.28666667,"lon":-116.54,"state":"ID"}
{"name":"RHODA POINT","year":1994,"lat":46.295,"lon":-115.08333333,"state":"ID"}
{"name":"LIZARD PEAK","year":1994,"lat":46.22666667,"lon":-115.13,"state":"ID"}
{"name":"PETERSON-ELLIOTT","year":1994,"lat":43.86666667,"lon":-104.69166667,"state":"WY"}
{"name":"HOURGLASS","year":1994,"lat":40.05,"lon":-105.05,"state":"CO"}
{"name":"UTE CREEK","year":1994,"lat":39.965,"lon":-107.475,"state":"CO"}
{"name":"S CANYON","year":1994,"lat":33.6,"lon":-109.08666667,"state":"AZ"}
{"name":"PINNACLE","year":1994,"lat":33.81833333,"lon":-107.59833333,"state":"NM"}
{"name":"BULL","year":1994,"lat":33.67333333,"lon":-107.41,"state":"NM"}
{"name":"POT","year":1994,"lat":33.70166667,"lon":-107.46166667,"state":"NM"}
{"name":"LOST","year":1994,"lat":34.94166667,"lon":-111.89166667,"state":"AZ"}
{"name":"RATTLESNAKE","year":1994,"lat":31.90666667,"lon":-109.30333333,"state":"AZ"}
{"name":"CLOVERDALE","year":1994,"lat":31.46333333,"lon":-108.92833333,"state":"NM"}
{"name":"COTTONWOOD","year":1994,"lat":32.93833333,"lon":-110.23,"state":"AZ"}
{"name":"REDINGTON","year":1994,"lat":32.26833333,"lon":-110.45333333,"state":"AZ"}
{"name":"RINCON","year":1994,"lat":32.19,"lon":-110.49833333,"state":"AZ"}
{"name":"BEAR","year":1994,"lat":33.50833333,"lon":-108.04166667,"state":"NM"}
{"name":"MULE","year":1994,"lat":33.02333333,"lon":-109.03666667,"state":"NM"}
{"name":"AEROPLANE","year":1994,"lat":33.37333333,"lon":-108.435,"state":"NM"}
{"name":"PIGEON","year":1994,"lat":33.09833333,"lon":-107.90166667,"state":"NM"}
{"name":"GOAT","year":1994,"lat":32.98333333,"lon":-108.31166667,"state":"NM"}
{"name":"GLASS","year":1994,"lat":32.93166667,"lon":-108.22666667,"state":"NM"}
{"name":"READING","year":1994,"lat":32.98333333,"lon":-108.32833333,"state":"NM"}
{"name":"PATOS","year":1994,"lat":33.74333333,"lon":-105.68333333,"state":"NM"}
{"name":"PONCHO","year":1994,"lat":33.58166667,"lon":-105.26666667,"state":"NM"}
{"name":"BRIDGE","year":1994,"lat":32.69666667,"lon":-105.755,"state":"NM"}
{"name":"ROAD","year":1994,"lat":32.24666667,"lon":-104.87666667,"state":"NM"}
{"name":"GAP","year":1994,"lat":32.09833333,"lon":-104.825,"state":"NM"}
{"name":"JUNIPER","year":1994,"lat":34.95833333,"lon":-112.935,"state":"AZ"}
{"name":"PECK","year":1994,"lat":34.28166667,"lon":-112.315,"state":"AZ"}
{"name":"CASTLE","year":1994,"lat":34.22333333,"lon":-112.21166667,"state":"AZ"}
{"name":"MOCKINGBIRD","year":1994,"lat":34.24833333,"lon":-111.835,"state":"AZ"}
{"name":"TANGLE","year":1994,"lat":34.16666667,"lon":-111.78833333,"state":"AZ"}
{"name":"ARMOR","year":1994,"lat":33.77166667,"lon":-111.0,"state":"AZ"}
{"name":"BEE","year":1994,"lat":34.07166667,"lon":-111.3,"state":"AZ"}
{"name":"NORTHFORK #1","year":1994,"lat":43.77833333,"lon":-115.56166667,"state":"ID"}
{"name":"BANNOCK CREEK","year":1994,"lat":43.78166667,"lon":-115.73,"state":"ID"}
{"name":"RABBIT CREEK #1","year":1994,"lat":43.78166667,"lon":-115.62833333,"state":"ID"}
{"name":"BEAR RIVER","year":1994,"lat":43.90166667,"lon":-112.47,"state":"ID"}
{"name":"THUNDERBOLT","year":1994,"lat":44.72333333,"lon":-115.65166667,"state":"ID"}
{"name":"ROW","year":1994,"lat":43.67,"lon":-110.65833333,"state":"WY"}
{"name":"BROWN CANYON","year":1994,"lat":42.88333333,"lon":-111.265,"state":"ID"}
{"name":"PIONEER CREEK","year":1994,"lat":44.51833333,"lon":-114.85166667,"state":"ID"}
{"name":"NORTON RIDGE","year":1994,"lat":45.025,"lon":-114.93833333,"state":"ID"}
{"name":"BLACK WILLOW","year":1994,"lat":39.43333333,"lon":-112.21666667,"state":"UT"}
{"name":"PRUNTY","year":1994,"lat":41.71666667,"lon":-115.51666667,"state":"NV"}
{"name":"BIG TABLE","year":1994,"lat":41.88333333,"lon":-115.66666667,"state":"NV"}
{"name":"CORRAL CREEK","year":1994,"lat":45.115,"lon":-116.17833333,"state":"ID"}
{"name":"BRUSH LAKE","year":1994,"lat":45.04166667,"lon":-115.97333333,"state":"ID"}
{"name":"BLACKWELL","year":1994,"lat":44.95666667,"lon":-116.005,"state":"ID"}
{"name":"TAG","year":1994,"lat":45.41666667,"lon":-114.88333333,"state":"ID"}
{"name":"BIG BIRD","year":1994,"lat":45.29,"lon":-115.42,"state":"ID"}
{"name":"CORNISH","year":1994,"lat":45.305,"lon":-115.42,"state":"ID"}
{"name":"BANTY","year":1994,"lat":45.27666667,"lon":-115.44,"state":"ID"}
{"name":"PORPHYRY SOUTH","year":1994,"lat":45.295,"lon":-115.48166667,"state":"ID"}
{"name":"POWERLINE","year":1994,"lat":45.165,"lon":-114.25,"state":"ID"}
{"name":"COTTONWOOD","year":1994,"lat":42.30888889,"lon":-114.47,"state":"ID"}
{"name":"LAKE","year":1994,"lat":43.43833333,"lon":-111.12333333,"state":"ID"}
{"name":"DRY CANYON 2","year":1994,"lat":41.61666667,"lon":-111.35666667,"state":"UT"}
{"name":"EDGAR CANYON","year":1994,"lat":41.83333333,"lon":-111.43333333,"state":"UT"}
{"name":"BEAR","year":1994,"lat":41.72333333,"lon":-123.545,"state":"CA"}
{"name":"HARRINGTON","year":1994,"lat":41.66666667,"lon":-123.66333333,"state":"CA"}
{"name":"JACK #1","year":1994,"lat":41.635,"lon":-123.63833333,"state":"CA"}
{"name":"SPECIMEN","year":1994,"lat":41.365,"lon":-123.15,"state":"CA"}
{"name":"BARKLEY","year":1994,"lat":40.135,"lon":-121.67833333,"state":"CA"}
{"name":"WILLOW","year":1994,"lat":33.56,"lon":-117.55666667,"state":"CA"}
{"name":"PALM","year":1994,"lat":33.63666667,"lon":-116.50833333,"state":"CA"}
{"name":"HIGHWAY 74","year":1994,"lat":33.55833333,"lon":-116.57,"state":"CA"}
{"name":"PEAK","year":1994,"lat":35.50333333,"lon":-118.70333333,"state":"CA"}
{"name":"LUCAS #4","year":1994,"lat":35.455,"lon":-118.71333333,"state":"CA"}
{"name":"FOUR CORNERS","year":1994,"lat":43.8175,"lon":-121.76361111,"state":"OR"}
{"name":"JORDAN SPRINGS","year":1994,"lat":43.87,"lon":-118.75666667,"state":"OR"}
{"name":"INDIAN ROCK","year":1994,"lat":44.74166667,"lon":-118.705,"state":"OR"}
{"name":"POWDER","year":1994,"lat":44.12333333,"lon":-118.30833333,"state":"OR"}
{"name":"THUNDER","year":1994,"lat":48.78166667,"lon":-119.98166667,"state":"WA"}
{"name":"WAR CREEK","year":1994,"lat":48.35833333,"lon":-120.545,"state":"WA"}
{"name":"WHITEFACE","year":1994,"lat":48.665,"lon":-120.37666667,"state":"WA"}
{"name":"MENDENHALL","year":1994,"lat":42.13666667,"lon":-123.725,"state":"OR"}
{"name":"BRACKEN","year":1994,"lat":46.25833333,"lon":-117.30833333,"state":"WA"}
{"name":"BOUNDARY","year":1994,"lat":45.03333333,"lon":-118.525,"state":"OR"}
{"name":"ALDER","year":1994,"lat":45.69833333,"lon":-117.035,"state":"OR"}
{"name":"THORN CREEK","year":1994,"lat":45.74333333,"lon":-116.77,"state":"OR"}
{"name":"FREEZEOUT","year":1994,"lat":45.375,"lon":-116.73,"state":"OR"}
{"name":"TWIN LAKES","year":1994,"lat":42.08666667,"lon":-117.05333333,"state":"OR"}
{"name":"GRANITE","year":1994,"lat":45.29,"lon":-116.64833333,"state":"ID"}
{"name":"FOX POINT","year":1994,"lat":45.42,"lon":-117.55166667,"state":"OR"}
{"name":"TYEE CREEK","year":1994,"lat":47.83333333,"lon":-120.33333333,"state":"WA"}
{"name":"ROUND MTN","year":1994,"lat":47.79,"lon":-120.805,"state":"WA"}
{"name":"HATCHERY CREEK","year":1994,"lat":47.65166667,"lon":-120.765,"state":"WA"}
{"name":"COPPER BUTTE","year":1994,"lat":48.70444444,"lon":-118.47333333,"state":"WA"}
{"name":"GOOD FRIDAY","year":1995,"lat":41.87944444,"lon":-100.48416667,"state":"NE"}
{"name":"HETT","year":1995,"lat":33.545,"lon":-109.14,"state":"AZ"}
{"name":"ED","year":1995,"lat":33.445,"lon":-109.28,"state":"AZ"}
{"name":"MILLIGAN","year":1995,"lat":33.71666667,"lon":-107.44333333,"state":"NM"}
{"name":"PLANT","year":1995,"lat":34.33333333,"lon":-111.66666667,"state":"AZ"}
{"name":"SHOVEL","year":1995,"lat":32.42833333,"lon":-110.81,"state":"AZ"}
{"name":"ALBION","year":1995,"lat":33.46666667,"lon":-107.945,"state":"NM"}
{"name":"SOUTH","year":1995,"lat":33.39833333,"lon":-108.13333333,"state":"NM"}
{"name":"BONNER","year":1995,"lat":33.185,"lon":-107.85166667,"state":"NM"}
{"name":"SPRITE","year":1995,"lat":33.25833333,"lon":-108.56833333,"state":"NM"}
{"name":"TORRES","year":1995,"lat":32.95833333,"lon":-108.27333333,"state":"NM"}
{"name":"Q-BALL","year":1995,"lat":32.97333333,"lon":-108.30666667,"state":"NM"}
{"name":"CHUCK","year":1995,"lat":34.105,"lon":-108.42166667,"state":"NM"}
{"name":"BASIN","year":1995,"lat":33.95,"lon":-111.58333333,"state":"AZ"}
{"name":"SQUAW","year":1995,"lat":34.15,"lon":-112.02,"state":"AZ"}
{"name":"MEDICINE","year":1995,"lat":33.76277778,"lon":-110.78111111,"state":"AZ"}
{"name":"LAKES","year":1995,"lat":43.655,"lon":-115.49833333,"state":"ID"}
{"name":"BATTLE CREEK","year":1995,"lat":40.51,"lon":-115.36833333,"state":"NV"}
{"name":"WATERFALL","year":1995,"lat":45.11833333,"lon":-114.71333333,"state":"ID"}
{"name":"WEST MOUNTAIN","year":1995,"lat":40.125,"lon":-111.81166667,"state":"UT"}
{"name":"PERRY CANYON","year":1995,"lat":41.43666667,"lon":-112.02,"state":"UT"}
{"name":"OWEN","year":1995,"lat":42.36472222,"lon":-120.81583333,"state":"OR"}
{"name":"MILL CR. PNF 848","year":1995,"lat":44.45611111,"lon":-120.51472222,"state":"OR"}
{"name":"SWITCHBACK","year":1995,"lat":42.41166667,"lon":-121.54166667,"state":"OR"}
{"name":"WINCHELL","year":1995,"lat":47.98666667,"lon":-90.61833333,"state":"MN"}
{"name":"SWEDE","year":1995,"lat":47.93666667,"lon":-90.50166667,"state":"MN"}
{"name":"LITTLE GABBRO","year":1995,"lat":47.85666667,"lon":-91.605,"state":"MN"}
{"name":"POT","year":1996,"lat":34.57166667,"lon":-111.40166667,"state":"AZ"}
{"name":"GRAVEL PIT","year":1996,"lat":43.03333333,"lon":-103.38333333,"state":"SD"}
{"name":"HAY BALE","year":1996,"lat":43.25833333,"lon":-104.0,"state":"SD"}
{"name":"DAMON/LONG","year":1996,"lat":41.565,"lon":-121.24666667,"state":"CA"}
{"name":"SUN COMPLEX","year":1996,"lat":36.08,"lon":-115.645,"state":"NV"}
{"name":"COTTONWOOD","year":1996,"lat":34.245,"lon":-110.31333333,"state":"AZ"}
{"name":"TELEPHONE","year":1996,"lat":38.29833333,"lon":-108.36666667,"state":"CO"}
{"name":"FALCONBERRY","year":1996,"lat":44.72333333,"lon":-114.79,"state":"ID"}
{"name":"DALTON 3","year":1996,"lat":41.73861111,"lon":-121.07333333,"state":"CA"}
{"name":"HENRY'S","year":1996,"lat":43.17833333,"lon":-105.74833333,"state":"WY"}
{"name":"MURPHY RIDGE","year":1996,"lat":42.185,"lon":-105.41,"state":"WY"}
{"name":"BEAR CREEK","year":1996,"lat":42.19833333,"lon":-105.46666667,"state":"WY"}
{"name":"MAGOTSU","year":1996,"lat":37.45333333,"lon":-113.67,"state":"UT"}
{"name":"RACER","year":1996,"lat":37.45333333,"lon":-113.78,"state":"UT"}
{"name":"DANO","year":1996,"lat":44.80166667,"lon":-109.34333333,"state":"WY"}
{"name":"STOCKWELL","year":1996,"lat":44.54944444,"lon":-107.06027778,"state":"WY"}
{"name":"STODDARD","year":1996,"lat":45.25,"lon":-114.71166667,"state":"ID"}
{"name":"HARRINGTON","year":1996,"lat":45.50333333,"lon":-114.91,"state":"ID"}
{"name":"QUINN","year":1996,"lat":41.97,"lon":-117.565,"state":"NV"}
{"name":"ROAD CANYON","year":1996,"lat":40.335,"lon":-115.48,"state":"NV"}
{"name":"SMILEY","year":1996,"lat":41.01833333,"lon":-115.16833333,"state":"NV"}
{"name":"LYNN","year":1996,"lat":41.92333333,"lon":-113.68666667,"state":"UT"}
{"name":"BRIDGE","year":1996,"lat":44.67333333,"lon":-114.68666667,"state":"ID"}
{"name":"DISAPPOINTMENT","year":1996,"lat":37.81388889,"lon":-108.5725,"state":"CO"}
{"name":"GOAT MOUNTAIN","year":1996,"lat":45.58333333,"lon":-114.82166667,"state":"ID"}
{"name":"LIME KILN # 3","year":1996,"lat":42.30333333,"lon":-112.34,"state":"ID"}
{"name":"BIG BRUIN/PNF","year":1996,"lat":45.445,"lon":-115.08333333,"state":"ID"}
{"name":"COW","year":1996,"lat":34.1,"lon":-112.0,"state":"AZ"}
{"name":"ASPEN HOLLOW","year":1996,"lat":43.11805556,"lon":-110.80861111,"state":"WY"}
{"name":"SWET CREEK","year":1996,"lat":45.57,"lon":-114.75166667,"state":"ID"}
{"name":"EVAN'S WEST 1321","year":1996,"lat":43.84111111,"lon":-121.13916667,"state":"OR"}
{"name":"BRIDGER KNOLL","year":1996,"lat":36.455,"lon":-112.43833333,"state":"AZ"}
{"name":"JUMP","year":1996,"lat":36.58,"lon":-112.56666667,"state":"AZ"}
{"name":"BULL","year":1996,"lat":44.86833333,"lon":-118.68333333,"state":"OR"}
{"name":"SUMMIT","year":1996,"lat":44.77666667,"lon":-118.64166667,"state":"OR"}
{"name":"TOWER","year":1996,"lat":45.075,"lon":-118.56666667,"state":"OR"}
{"name":"CHARLTON","year":1996,"lat":43.79666667,"lon":-122.035,"state":"OR"}
{"name":"WARRIORS FACE","year":1996,"lat":45.71166667,"lon":-114.67166667,"state":"ID"}
{"name":"SOUTH TEMPERANCE","year":1996,"lat":47.935,"lon":-90.775,"state":"MN"}
{"name":"WHITEFEATHER LAKE","year":1996,"lat":48.15,"lon":-91.98666667,"state":"MN"}
{"name":"COLBERT","year":1996,"lat":45.695,"lon":-106.23,"state":"MT"}
{"name":"HOCKDERFFER","year":1996,"lat":35.38,"lon":-111.75333333,"state":"AZ"}
{"name":"SLOANS RIDGE","year":1996,"lat":44.90027778,"lon":-118.29388889,"state":"OR"}
{"name":"ELBOW BASIN","year":1996,"lat":48.93,"lon":-120.83333333,"state":"WA"}
{"name":"POLE CREEK","year":1996,"lat":38.185,"lon":-112.38666667,"state":"UT"}
{"name":"SHEPARD MTN","year":1996,"lat":45.17833333,"lon":-109.655,"state":"MT"}
{"name":"WILDCAT","year":1996,"lat":44.295,"lon":-118.74166667,"state":"OR"}
{"name":"SHEEP CREEK","year":1996,"lat":45.43666667,"lon":-116.5225,"state":"ID"}
{"name":"SALT CREEK","year":1996,"lat":45.56555556,"lon":-116.57194444,"state":"OR"}
{"name":"DAM","year":1996,"lat":45.26,"lon":-116.6875,"state":"ID"}
{"name":"LOOKOUT","year":1996,"lat":33.215,"lon":-108.62,"state":"NM"}
{"name":"LANGSTROTH","year":1996,"lat":33.27333333,"lon":-108.495,"state":"NM"}
{"name":"ACKERSON","year":1996,"lat":37.855,"lon":-119.82666667,"state":"CA"}
{"name":"COYOTE PNF","year":1996,"lat":44.99333333,"lon":-110.43,"state":"MT"}
{"name":"MOOLACK","year":1996,"lat":43.875,"lon":-122.09333333,"state":"OR"}
{"name":"ROCK","year":1996,"lat":40.185,"lon":-122.98666667,"state":"CA"}
{"name":"SPRING","year":1996,"lat":43.035,"lon":-122.535,"state":"OR"}
{"name":"WHISKEY CREEK","year":1996,"lat":39.3,"lon":-112.33333333,"state":"UT"}
{"name":"WHISKEY II","year":1996,"lat":39.3,"lon":-112.36666667,"state":"UT"}
{"name":"SORENSON RANCH","year":1996,"lat":38.65833333,"lon":-112.53333333,"state":"UT"}
{"name":"ADELAIDE","year":1996,"lat":38.75,"lon":-112.35,"state":"UT"}
{"name":"ALDERRIDGE","year":1996,"lat":42.96833333,"lon":-121.14388889,"state":"OR"}
{"name":"GORGE","year":1996,"lat":34.59,"lon":-118.77166667,"state":"CA"}
{"name":"COLT","year":1997,"lat":45.42166667,"lon":-114.68333333,"state":"ID"}
{"name":"CHOKE","year":1997,"lat":36.825,"lon":-118.76166667,"state":"CA"}
{"name":"ROCKY","year":1997,"lat":33.115,"lon":-107.99833333,"state":"NM"}
{"name":"LILLY","year":1997,"lat":33.275,"lon":-108.36833333,"state":"NM"}
{"name":"JACKS","year":1997,"lat":35.61,"lon":-118.11666667,"state":"CA"}
{"name":"BILLY","year":1998,"lat":46.13333333,"lon":-114.95666667,"state":"ID"}
{"name":"KOPSI","year":1998,"lat":48.885,"lon":-114.72833333,"state":"MT"}
{"name":"DOME","year":1998,"lat":48.38666667,"lon":-115.74,"state":"MT"}
{"name":"ARCTIC CREEK","year":1998,"lat":45.51,"lon":-115.01805556,"state":"ID"}
{"name":"ROCK RABBIT","year":1998,"lat":45.2625,"lon":-115.25388889,"state":"ID"}
{"name":"TURKEY RUN","year":1998,"lat":30.34166667,"lon":-82.5,"state":"FL"}
{"name":"WAGONTONGUE","year":1998,"lat":33.88666667,"lon":-108.515,"state":"NM"}
{"name":"BS","year":1998,"lat":33.455,"lon":-108.7,"state":"NM"}
{"name":"GYPSY","year":1998,"lat":46.375,"lon":-114.99,"state":"ID"}
{"name":"SHEEPEATER","year":1998,"lat":45.37666667,"lon":-114.31833333,"state":"ID"}
{"name":"CAYUSE","year":1998,"lat":45.48,"lon":-114.58,"state":"ID"}
{"name":"LAIDLOW","year":1998,"lat":44.43,"lon":-115.14666667,"state":"ID"}
{"name":"SODA","year":1998,"lat":44.91166667,"lon":-114.67666667,"state":"ID"}
{"name":"SOUTH LOOKOUT","year":1998,"lat":45.95,"lon":-114.62833333,"state":"ID"}
{"name":"JACKS","year":1998,"lat":32.60333333,"lon":-108.42,"state":"NM"}
{"name":"FARM","year":1998,"lat":32.99833333,"lon":-108.295,"state":"NM"}
{"name":"SCHOFIELD","year":1998,"lat":45.84666667,"lon":-114.6,"state":"ID"}
{"name":"RAINIER CREEK","year":1998,"lat":45.40333333,"lon":-114.805,"state":"ID"}
{"name":"HIDDEN LAKE","year":1998,"lat":45.61666667,"lon":-114.52166667,"state":"ID"}
{"name":"HAMILTON","year":1998,"lat":45.59166667,"lon":-114.92833333,"state":"ID"}
{"name":"BEND","year":1998,"lat":45.62333333,"lon":-114.915,"state":"ID"}
{"name":"NORTH CROWDER","year":1998,"lat":41.7675,"lon":-120.55222222,"state":"CA"}
{"name":"NORTH 25 MILE","year":1998,"lat":47.96666667,"lon":-120.39,"state":"WA"}
{"name":"BOWL MTN.","year":1998,"lat":47.97833333,"lon":-112.965,"state":"MT"}
{"name":"GILBERT CR","year":1998,"lat":46.65333333,"lon":-113.80333333,"state":"MT"}
{"name":"JACKASS","year":1998,"lat":44.925,"lon":-114.60833333,"state":"ID"}
{"name":"CHALLENGE","year":1998,"lat":48.26666667,"lon":-113.37666667,"state":"MT"}
{"name":"HIRAM","year":1999,"lat":38.45027778,"lon":-119.88333333,"state":"CA"}
{"name":"TURKEY","year":1999,"lat":34.71694444,"lon":-111.11666667,"state":"AZ"}
{"name":"COPPER CAMP","year":1999,"lat":45.18666667,"lon":-115.17833333,"state":"ID"}
{"name":"LODGEPOLE","year":1999,"lat":45.35222222,"lon":-115.13333333,"state":"ID"}
{"name":"LITTLE RAMEY","year":1999,"lat":45.24666667,"lon":-115.13333333,"state":"ID"}
{"name":"COLT KILLED CREEK","year":1999,"lat":46.40055556,"lon":-114.50805556,"state":"ID"}
{"name":"REIMER","year":1999,"lat":34.38388889,"lon":-111.96861111,"state":"AZ"}
{"name":"STORM RIDGE","year":1999,"lat":45.62,"lon":-114.64833333,"state":"ID"}
{"name":"PINE","year":1999,"lat":41.70972222,"lon":-121.07333333,"state":"CA"}
{"name":"YELLOW","year":1999,"lat":41.75305556,"lon":-121.6325,"state":"CA"}
{"name":"FRIENDLY","year":1999,"lat":30.475,"lon":-82.395,"state":"FL"}
{"name":"BAXTER","year":1999,"lat":40.61805556,"lon":-115.31805556,"state":"NV"}
{"name":"MITCHELL CREEK","year":1999,"lat":40.15222222,"lon":-115.65055556,"state":"NV"}
{"name":"SUGAR","year":1999,"lat":40.86583333,"lon":-122.43555556,"state":"CA"}
{"name":"JACKASS","year":1999,"lat":40.83555556,"lon":-122.43444444,"state":"CA"}
{"name":"BOHEMOTASH","year":1999,"lat":40.78361111,"lon":-122.4675,"state":"CA"}
{"name":"HIGH","year":1999,"lat":40.95138889,"lon":-122.30138889,"state":"CA"}
{"name":"REPTILE","year":1999,"lat":40.96888889,"lon":-122.51694444,"state":"CA"}
{"name":"MEGRAM","year":1999,"lat":41.1025,"lon":-123.375,"state":"CA"}
{"name":"LUNCH","year":1999,"lat":40.91722222,"lon":-122.46777778,"state":"CA"}
{"name":"SHEEP #1","year":1999,"lat":40.86916667,"lon":-122.5025,"state":"CA"}
{"name":"QUEASY","year":1999,"lat":44.03694444,"lon":-115.10583333,"state":"ID"}
{"name":"TASSAJARA","year":1999,"lat":36.26833333,"lon":-121.61722222,"state":"CA"}
{"name":"HARE","year":1999,"lat":36.01694444,"lon":-121.50055556,"state":"CA"}
{"name":"FIVE","year":1999,"lat":36.21805556,"lon":-121.63444444,"state":"CA"}
{"name":"BIG 2","year":1999,"lat":39.88472222,"lon":-121.35,"state":"CA"}
{"name":"BUCKS","year":1999,"lat":39.90166667,"lon":-121.31666667,"state":"CA"}
{"name":"PIEGEON","year":1999,"lat":39.83416667,"lon":-121.03333333,"state":"CA"}
{"name":"LOOKOUT","year":1999,"lat":39.83388889,"lon":-121.08555556,"state":"CA"}
{"name":"DEVILS GAP","year":1999,"lat":39.68444444,"lon":-121.05083333,"state":"CA"}
{"name":"BEAN","year":1999,"lat":39.62916667,"lon":-121.29138889,"state":"CA"}
{"name":"EAST","year":1999,"lat":41.73555556,"lon":-123.35083333,"state":"CA"}
{"name":"NORTON CREEK","year":1999,"lat":44.86388889,"lon":-114.84972222,"state":"ID"}
{"name":"SOLDIER CREEK","year":1999,"lat":44.60111111,"lon":-115.20111111,"state":"ID"}
{"name":"POWER","year":2000,"lat":35.23,"lon":-111.39166667,"state":"AZ"}
{"name":"GULF","year":2000,"lat":34.58388889,"lon":-111.4675,"state":"AZ"}
{"name":"BRUNEAU","year":1999,"lat":41.88472222,"lon":-115.61805556,"state":"NV"}
{"name":"PRIETA","year":2000,"lat":36.26722222,"lon":-106.60111111,"state":"NM"}
{"name":"HIDDEN","year":2000,"lat":46.37305556,"lon":-114.5825,"state":"ID"}
{"name":"CANYON II","year":2000,"lat":45.54333333,"lon":-115.02416667,"state":"ID"}
{"name":"SHORT CREEK","year":2000,"lat":45.57055556,"lon":-114.97777778,"state":"ID"}
{"name":"ELIZABETH","year":2000,"lat":46.81694444,"lon":-115.25694444,"state":"ID"}
{"name":"SNOW CREEK","year":2000,"lat":46.88305556,"lon":-115.38472222,"state":"ID"}
{"name":"CROW","year":2000,"lat":44.50138889,"lon":-110.10138889,"state":"WY"}
{"name":"RABBIT CREEK","year":2000,"lat":41.86888889,"lon":-111.12027778,"state":"UT"}
{"name":"HASH ROCK   1086","year":2000,"lat":44.47833333,"lon":-120.5875,"state":"OR"}
{"name":"ROCKY HULL","year":2000,"lat":48.89333333,"lon":-119.41305556,"state":"WA"}
{"name":"EAST VIVIAN","year":2000,"lat":40.34111111,"lon":-111.52916667,"state":"UT"}
{"name":"WILLOW","year":2000,"lat":34.68833333,"lon":-111.31333333,"state":"AZ"}
{"name":"CRAZY","year":2000,"lat":33.41805556,"lon":-108.45194444,"state":"NM"}
{"name":"TRAIL CREEK","year":2000,"lat":43.7225,"lon":-115.12305556,"state":"ID"}
{"name":"SHIRLEY","year":2000,"lat":33.36777778,"lon":-107.98472222,"state":"NM"}
{"name":"SIERRA","year":2000,"lat":33.36777778,"lon":-107.95138889,"state":"NM"}
{"name":"BURNT FLATS","year":2000,"lat":45.82166667,"lon":-116.23166667,"state":"ID"}
{"name":"PUMPKIN","year":2000,"lat":35.38444444,"lon":-111.90083333,"state":"AZ"}
{"name":"BLOODGOOD","year":2000,"lat":33.1675,"lon":-108.31861111,"state":"NM"}
{"name":"GRAVES","year":2000,"lat":33.28527778,"lon":-108.33527778,"state":"NM"}
{"name":"MONUMENT CANYON","year":2000,"lat":42.19305556,"lon":-113.18916667,"state":"ID"}
{"name":"WEST BASIN","year":2000,"lat":41.97333333,"lon":-114.45027778,"state":"NV"}
{"name":"WALL","year":2000,"lat":33.38305556,"lon":-108.08305556,"state":"NM"}
{"name":"LOST FORK RIDGE","year":2000,"lat":46.76666667,"lon":-110.53305556,"state":"MT"}
{"name":"BUNYAN POINT","year":2000,"lat":47.38527778,"lon":-112.85638889,"state":"MT"}
{"name":"MCDONALD II","year":2000,"lat":47.92,"lon":-112.94361111,"state":"MT"}
{"name":"EAR MTN","year":2000,"lat":47.85861111,"lon":-112.63555556,"state":"MT"}
{"name":"GOODRICH","year":2000,"lat":44.6325,"lon":-116.53222222,"state":"ID"}
{"name":"MOORE CREEK","year":2000,"lat":45.45,"lon":-115.28555556,"state":"ID"}
{"name":"SOUTH SHELLROCK","year":2000,"lat":44.90194444,"lon":-115.95083333,"state":"ID"}
{"name":"GRASS MOUNTAIN","year":2000,"lat":45.38472222,"lon":-114.98444444,"state":"ID"}
{"name":"FLOSSIE","year":2000,"lat":45.38472222,"lon":-115.28555556,"state":"ID"}
{"name":"THREE BEARS","year":2000,"lat":45.50138889,"lon":-115.0675,"state":"ID"}
{"name":"DIAMOND POINT","year":2000,"lat":45.15138889,"lon":-115.18583333,"state":"ID"}
{"name":"BLACK LAKE","year":2000,"lat":45.34694444,"lon":-114.80888889,"state":"ID"}
{"name":"NICK","year":2000,"lat":44.93472222,"lon":-115.81916667,"state":"ID"}
{"name":"INDIAN","year":2000,"lat":44.86694444,"lon":-115.3175,"state":"ID"}
{"name":"CK","year":2000,"lat":45.38472222,"lon":-115.36861111,"state":"ID"}
{"name":"BURGDORF JCT.","year":2000,"lat":45.27666667,"lon":-115.89166667,"state":"ID"}
{"name":"ARROW CREEK","year":2000,"lat":39.41611111,"lon":-119.81888889,"state":"NV"}
{"name":"PHILLIPS RANCH","year":2000,"lat":38.87444444,"lon":-114.32777778,"state":"NV"}
{"name":"CAMP","year":2000,"lat":41.72027778,"lon":-115.19555556,"state":"NV"}
{"name":"PEAK","year":2000,"lat":33.2675,"lon":-110.83555556,"state":"AZ"}
{"name":"156 LONGLEAF VISTA","year":2000,"lat":31.51638889,"lon":-93.02833333,"state":"LA"}
{"name":"TOBIN","year":2000,"lat":45.59305556,"lon":-105.93472222,"state":"MT"}
{"name":"STAG","year":2000,"lat":45.31722222,"lon":-106.20333333,"state":"MT"}
{"name":"MAYNARD","year":2000,"lat":45.83,"lon":-114.02333333,"state":"MT"}
{"name":"WARM SPRINGS","year":2000,"lat":45.85833333,"lon":-114.02333333,"state":"MT"}
{"name":"THIRTY","year":2000,"lat":45.82166667,"lon":-114.77166667,"state":"ID"}
{"name":"FITZ CREEK","year":2000,"lat":45.88833333,"lon":-114.68333333,"state":"ID"}
{"name":"LONELY CREEK","year":2000,"lat":45.725,"lon":-114.84833333,"state":"ID"}
{"name":"HAMILTON CREEK","year":2000,"lat":45.58,"lon":-114.86333333,"state":"ID"}
{"name":"THRONG","year":2000,"lat":45.755,"lon":-114.90333333,"state":"ID"}
{"name":"SPADE 1","year":2000,"lat":45.90055556,"lon":-114.15861111,"state":"MT"}
{"name":"COYOTE","year":2000,"lat":46.07333333,"lon":-113.89333333,"state":"MT"}
{"name":"BEAR","year":2000,"lat":45.96416667,"lon":-114.01722222,"state":"MT"}
{"name":"FALLS","year":2000,"lat":46.24222222,"lon":-113.80555556,"state":"MT"}
{"name":"LITTLE BLUE JOINT","year":2000,"lat":45.66333333,"lon":-114.42333333,"state":"MT"}
{"name":"TAYLOR SPRINGS","year":2000,"lat":45.645,"lon":-114.155,"state":"MT"}
{"name":"PROSPECT","year":2000,"lat":45.65166667,"lon":-114.07,"state":"MT"}
{"name":"SLATE CREEK","year":2000,"lat":45.68833333,"lon":-114.18,"state":"MT"}
{"name":"RAZOR","year":2000,"lat":45.635,"lon":-114.42,"state":"MT"}
{"name":"FAT MAN RIDGE","year":2000,"lat":45.79166667,"lon":-114.19,"state":"MT"}
{"name":"MARLIN SPRINGS","year":2000,"lat":45.51833333,"lon":-114.26,"state":"MT"}
{"name":"BURKE","year":2000,"lat":46.02444444,"lon":-114.09166667,"state":"MT"}
{"name":"FONTENELLE","year":2000,"lat":42.22444444,"lon":-110.63472222,"state":"WY"}
{"name":"ENOS","year":2000,"lat":43.96888889,"lon":-110.26944444,"state":"WY"}
{"name":"BOULDER","year":2000,"lat":43.32916667,"lon":-110.49694444,"state":"WY"}
{"name":"BLIND TRAIL","year":2000,"lat":43.04944444,"lon":-110.68527778,"state":"WY"}
{"name":"MORSE","year":2000,"lat":44.61666667,"lon":-113.79333333,"state":"ID"}
{"name":"RANKIN CREEK","year":2000,"lat":44.37166667,"lon":-114.73,"state":"ID"}
{"name":"LITTLE PISTOL","year":2000,"lat":44.76027778,"lon":-115.33416667,"state":"ID"}
{"name":"NORTON RIDGE","year":2000,"lat":44.91194444,"lon":-114.95444444,"state":"ID"}
{"name":"FENSTER","year":2000,"lat":45.26166667,"lon":-113.955,"state":"ID"}
{"name":"BUTTS","year":2000,"lat":45.34361111,"lon":-114.77888889,"state":"ID"}
{"name":"FILLY","year":2000,"lat":45.48,"lon":-114.62166667,"state":"ID"}
{"name":"PARKER","year":2000,"lat":45.46222222,"lon":-114.66166667,"state":"ID"}
{"name":"KITCHEN","year":2000,"lat":45.30611111,"lon":-114.68861111,"state":"ID"}
{"name":"PACKER MEADOWS","year":2000,"lat":45.465,"lon":-114.745,"state":"ID"}
{"name":"APAREJO","year":2000,"lat":44.925,"lon":-114.67666667,"state":"ID"}
{"name":"PINE GULCH","year":2000,"lat":45.35333333,"lon":-114.30611111,"state":"ID"}
{"name":"PAPOOSE","year":2000,"lat":45.23333333,"lon":-114.82666667,"state":"ID"}
{"name":"SHORT CREEK II","year":2000,"lat":45.01666667,"lon":-114.75055556,"state":"ID"}
{"name":"CLEAR CREEK","year":2000,"lat":45.22166667,"lon":-114.495,"state":"ID"}
{"name":"COUGAR CREEK","year":2000,"lat":46.05055556,"lon":-113.78472222,"state":"MT"}
{"name":"FALLS FIRE","year":2000,"lat":45.9525,"lon":-113.48472222,"state":"MT"}
{"name":"LYDIA MTN.","year":2000,"lat":48.66722222,"lon":-115.13388889,"state":"MT"}
{"name":"CLIFF POINT","year":2000,"lat":48.76694444,"lon":-115.33444444,"state":"MT"}
{"name":"STONE HILL","year":2000,"lat":48.81416667,"lon":-115.16888889,"state":"MT"}
{"name":"TAYLOR PEAK","year":2000,"lat":48.36638889,"lon":-115.81138889,"state":"MT"}
{"name":"KELSEY CREEK","year":2000,"lat":48.75194444,"lon":-115.61833333,"state":"MT"}
{"name":"UPPER BEAVER","year":2000,"lat":48.82444444,"lon":-115.59583333,"state":"MT"}
{"name":"CHIPMUNK","year":2000,"lat":47.85027778,"lon":-113.55222222,"state":"MT"}
{"name":"HELEN CREEK","year":2000,"lat":47.70166667,"lon":-113.35083333,"state":"MT"}
{"name":"BUCK SPRINGS","year":2000,"lat":36.3575,"lon":-115.77166667,"state":"NV"}
{"name":"ARROW","year":2000,"lat":33.57166667,"lon":-109.33472222,"state":"AZ"}
{"name":"JIM CREEK RANCH","year":2000,"lat":45.9125,"lon":-116.86666667,"state":"OR"}
{"name":"DEEP CREEK CABIN","year":2000,"lat":45.75305556,"lon":-116.64861111,"state":"OR"}
{"name":"CARROL CREEK","year":2000,"lat":45.28583333,"lon":-116.99166667,"state":"OR"}
{"name":"THORN","year":2000,"lat":45.69583333,"lon":-116.82833333,"state":"OR"}
{"name":"FLAT FIRE","year":2000,"lat":47.21916667,"lon":-114.81861111,"state":"MT"}
{"name":"UPPER NINEMILE","year":2000,"lat":47.23333333,"lon":-114.625,"state":"MT"}
{"name":"S. NEMOTE #4","year":2000,"lat":47.0425,"lon":-114.59916667,"state":"MT"}
{"name":"ALPINE DIVIDE","year":2000,"lat":47.20416667,"lon":-114.70111111,"state":"MT"}
{"name":"SIAMESE LAKE","year":2000,"lat":46.85888889,"lon":-114.90638889,"state":"MT"}
{"name":"MONTURE COMPLEX","year":2000,"lat":47.26472222,"lon":-113.20638889,"state":"MT"}
{"name":"SPREAD RIDGE","year":2000,"lat":47.16138889,"lon":-113.10416667,"state":"MT"}
{"name":"LANDOWNER MNT","year":2000,"lat":47.03527778,"lon":-114.95111111,"state":"MT"}
{"name":"BEAVER CREEK","year":2000,"lat":44.92611111,"lon":-111.33777778,"state":"MT"}
{"name":"MORNING DOVE","year":2000,"lat":39.45388889,"lon":-112.21222222,"state":"UT"}
{"name":"OLDROYD","year":2000,"lat":38.50583333,"lon":-112.04388889,"state":"UT"}
{"name":"SAWLOG","year":2000,"lat":42.61833333,"lon":-103.33333333,"state":"NE"}
{"name":"TALKINGTON 1","year":2000,"lat":46.95833333,"lon":-103.25833333,"state":"ND"}
{"name":"PASTURE 9 BURN","year":2000,"lat":45.68611111,"lon":-102.08055556,"state":"SD"}
{"name":"POWDERHORN","year":2000,"lat":42.69333333,"lon":-101.11833333,"state":"NE"}
{"name":"HALEY","year":2000,"lat":38.57861111,"lon":-108.53472222,"state":"CO"}
{"name":"BLACK","year":2001,"lat":33.2,"lon":-108.05111111,"state":"NM"}
{"name":"NORTHSTAR","year":2001,"lat":32.10166667,"lon":-110.42333333,"state":"AZ"}
{"name":"TWO MILE","year":2001,"lat":46.31027778,"lon":-114.72777778,"state":"ID"}
{"name":"MCLAUGHLIN","year":2001,"lat":37.75166667,"lon":-118.8675,"state":"CA"}
{"name":"LONE PINE","year":2001,"lat":46.09777778,"lon":-115.00805556,"state":"ID"}
{"name":"TACO","year":2001,"lat":45.44777778,"lon":-116.13388889,"state":"ID"}
{"name":"BAILEY","year":2001,"lat":48.48861111,"lon":-119.11944444,"state":"WA"}
{"name":"EGBERT/SNOW WATER","year":2001,"lat":40.80055556,"lon":-115.04027778,"state":"NV"}
{"name":"SMITH CREEK","year":2001,"lat":39.06194444,"lon":-115.27361111,"state":"NV"}
{"name":"MURPHY","year":2001,"lat":41.89333333,"lon":-115.58222222,"state":"NV"}
{"name":"QUINN RIVER","year":2001,"lat":41.93666667,"lon":-117.5675,"state":"NV"}
{"name":"ELK CREEK","year":2001,"lat":45.10055556,"lon":-115.625,"state":"ID"}
{"name":"STARR","year":2001,"lat":40.98361111,"lon":-115.21694444,"state":"NV"}
{"name":"SNOWSHOE","year":2001,"lat":44.63833333,"lon":-115.37166667,"state":"ID"}
{"name":"SOUTHWARNER","year":2001,"lat":42.13,"lon":-120.17527778,"state":"OR"}
{"name":"FOOLHEN","year":2001,"lat":45.88583333,"lon":-114.90972222,"state":"ID"}
{"name":"STREAM","year":2001,"lat":40.16722222,"lon":-120.63388889,"state":"CA"}
{"name":"HORSE CREEK","year":2001,"lat":45.66944444,"lon":-116.77055556,"state":"OR"}
{"name":"ROCK","year":2001,"lat":41.8875,"lon":-120.86722222,"state":"CA"}
{"name":"PINE","year":2001,"lat":34.29972222,"lon":-111.79444444,"state":"AZ"}
{"name":"BELL","year":2001,"lat":41.69527778,"lon":-120.99611111,"state":"CA"}
{"name":"BLUE","year":2001,"lat":41.15944444,"lon":-120.31166667,"state":"CA"}
{"name":"CEASE","year":2001,"lat":33.53472222,"lon":-107.85138889,"state":"NM"}
{"name":"CABIN CREEK","year":2001,"lat":47.23861111,"lon":-112.94888889,"state":"MT"}
{"name":"JOHNSON","year":2001,"lat":42.61666667,"lon":-120.545,"state":"OR"}
{"name":"REX CREEK COMPLEX","year":2001,"lat":48.20055556,"lon":-120.49805556,"state":"WA"}
{"name":"SWILLUP II","year":2001,"lat":41.60583333,"lon":-123.51166667,"state":"CA"}
{"name":"FRIDLEY","year":2001,"lat":45.38611111,"lon":-110.85777778,"state":"MT"}
{"name":"MONUMENT","year":2001,"lat":45.18305556,"lon":-110.17694444,"state":"MT"}
{"name":"PURDY CREEK","year":2001,"lat":45.47,"lon":-111.19611111,"state":"MT"}
{"name":"DEVILS DEN","year":2001,"lat":32.20027778,"lon":-104.68444444,"state":"NM"}
{"name":"CANNON","year":2001,"lat":47.71861111,"lon":-113.51666667,"state":"MT"}
{"name":"BERGSICKER","year":2001,"lat":48.13444444,"lon":-113.51777778,"state":"MT"}
{"name":"MOOSE","year":2001,"lat":48.58583333,"lon":-114.35027778,"state":"MT"}
{"name":"BIRK","year":2001,"lat":47.23555556,"lon":-113.30194444,"state":"MT"}
{"name":"BIGGS FLAT","year":2001,"lat":47.74833333,"lon":-112.93583333,"state":"MT"}
{"name":"CRATER","year":2001,"lat":37.86805556,"lon":-118.98333333,"state":"CA"}
{"name":"ELK MOUNTAIN #2","year":2001,"lat":43.7125,"lon":-104.08333333,"state":"WY"}
{"name":"ROGER'S SHACK","year":2001,"lat":43.625,"lon":-103.91166667,"state":"SD"}
{"name":"FOURTH OF JULY","year":2001,"lat":47.59,"lon":-120.765,"state":"WA"}
{"name":"DARK LAKE","year":2001,"lat":44.79888889,"lon":-121.77722222,"state":"OR"}
{"name":"SLEEPY","year":2001,"lat":48.48527778,"lon":-118.47,"state":"WA"}
{"name":"MT. LEONA","year":2001,"lat":48.78861111,"lon":-118.49416667,"state":"WA"}
{"name":"FALCON","year":2001,"lat":44.10916667,"lon":-110.17416667,"state":"WY"}
{"name":"MAD CREEK","year":2001,"lat":40.66166667,"lon":-106.795,"state":"CO"}
{"name":"LEROY","year":2001,"lat":42.17,"lon":-105.25777778,"state":"WY"}
{"name":"WHITETAIL","year":2001,"lat":33.36777778,"lon":-108.035,"state":"NM"}
{"name":"EYERLY  0684","year":2002,"lat":44.61861111,"lon":-121.47138889,"state":"OR"}
{"name":"SKUNK","year":2002,"lat":42.555,"lon":-121.54861111,"state":"OR"}
{"name":"NORTH HORN MOUNTAIN","year":2002,"lat":39.23222222,"lon":-111.23111111,"state":"UT"}
{"name":"HAMMOND","year":2002,"lat":37.67166667,"lon":-109.72,"state":"UT"}
{"name":"HANG DOG","year":2002,"lat":38.36972222,"lon":-109.10666667,"state":"UT"}
{"name":"COTTONWOOD","year":2002,"lat":38.38833333,"lon":-112.28555556,"state":"UT"}
{"name":"DOME","year":2002,"lat":33.55277778,"lon":-111.19166667,"state":"AZ"}
{"name":"BIG WASH","year":2002,"lat":37.56666667,"lon":-112.875,"state":"UT"}
{"name":"CASTLE","year":2002,"lat":33.49444444,"lon":-107.89277778,"state":"NM"}
{"name":"CROOKED","year":2002,"lat":42.97333333,"lon":-122.65361111,"state":"OR"}
{"name":"ACKER","year":2002,"lat":43.06166667,"lon":-122.65833333,"state":"OR"}
{"name":"BOULDER","year":2002,"lat":43.09777778,"lon":-122.73666667,"state":"OR"}
{"name":"BUCKEYE","year":2002,"lat":43.05638889,"lon":-122.57583333,"state":"OR"}
{"name":"TALLOW","year":2002,"lat":42.995,"lon":-122.69861111,"state":"OR"}
{"name":"BIG BEND","year":2002,"lat":43.09583333,"lon":-122.5525,"state":"OR"}
{"name":"SCRABBLE","year":2002,"lat":37.45333333,"lon":-113.66972222,"state":"UT"}
{"name":"SEQUOIA","year":2002,"lat":37.41,"lon":-113.33777778,"state":"UT"}
{"name":"LOST LAKES","year":2002,"lat":40.09805556,"lon":-107.22777778,"state":"CO"}
{"name":"BURN RIDGE","year":2002,"lat":40.70833333,"lon":-106.78138889,"state":"CO"}
{"name":"HINMAN","year":2002,"lat":40.81472222,"lon":-106.81444444,"state":"CO"}
{"name":"GREEN CREEK","year":2002,"lat":40.30833333,"lon":-106.69166667,"state":"CO"}
{"name":"JOHNSON","year":2002,"lat":38.64222222,"lon":-111.64944444,"state":"UT"}
{"name":"CASHE MOUNTIAN  0985","year":2002,"lat":44.38777778,"lon":-121.77222222,"state":"OR"}
{"name":"747 FIRE     0747","year":2002,"lat":44.31972222,"lon":-119.63694444,"state":"OR"}
{"name":"ORACLE HILL","year":2002,"lat":32.57833333,"lon":-110.78194444,"state":"AZ"}
{"name":"DARNELL","year":2002,"lat":31.82222222,"lon":-109.13888889,"state":"AZ"}
{"name":"STANZA","year":2002,"lat":41.66805556,"lon":-123.29666667,"state":"CA"}
{"name":"MARBLEYARD","year":2002,"lat":37.58333333,"lon":-79.47777778,"state":"VA"}
{"name":"BIRD HILL","year":2002,"lat":46.19833333,"lon":-114.86333333,"state":"ID"}
{"name":"BUCK HOLLOW","year":2002,"lat":41.88027778,"lon":-113.70638889,"state":"UT"}
{"name":"FULLER","year":2002,"lat":37.05805556,"lon":-118.36861111,"state":"CA"}
{"name":"MIDDLE MTN","year":2002,"lat":48.92444444,"lon":-120.47055556,"state":"WA"}
{"name":"QUARTZ CREEK","year":2002,"lat":48.94222222,"lon":-120.44222222,"state":"WA"}
{"name":"ELLSWORTH","year":2002,"lat":38.90388889,"lon":-117.80416667,"state":"NV"}
{"name":"LOST CABIN","year":2002,"lat":36.12305556,"lon":-115.64277778,"state":"NV"}
{"name":"PASS CREEK","year":2002,"lat":42.62083333,"lon":-108.79083333,"state":"WY"}
{"name":"KRAFT SPRINGS","year":2002,"lat":45.66138889,"lon":-104.11888889,"state":"MT"}
{"name":"SHEEP CREEK","year":2002,"lat":45.68333333,"lon":-113.76666667,"state":"MT"}
{"name":"CUB","year":2002,"lat":33.31666667,"lon":-108.55027778,"state":"NM"}
{"name":"TRICK","year":2002,"lat":35.04194444,"lon":-112.0625,"state":"AZ"}
{"name":"DIVIDE","year":2002,"lat":42.82694444,"lon":-109.47944444,"state":"WY"}
{"name":"MULE FIRE","year":2002,"lat":42.96,"lon":-110.53944444,"state":"WY"}
{"name":"SPRING CREEK","year":2002,"lat":39.68444444,"lon":-107.49472222,"state":"CO"}
{"name":"BIG FISH","year":2002,"lat":39.99416667,"lon":-107.28666667,"state":"CO"}
{"name":"LITTLE HORSE","year":2002,"lat":45.45083333,"lon":-114.5775,"state":"ID"}
{"name":"OR-MAF-105","year":2002,"lat":44.48916667,"lon":-118.50833333,"state":"OR"}
{"name":"OR-MAF-103","year":2002,"lat":44.28527778,"lon":-118.27944444,"state":"OR"}
{"name":"OR-MAF-178","year":2002,"lat":44.27916667,"lon":-118.68361111,"state":"OR"}
{"name":"TRAMPAS","year":2002,"lat":35.8425,"lon":-105.60388889,"state":"NM"}
{"name":"BISCUIT","year":2002,"lat":42.03888889,"lon":-123.91166667,"state":"OR"}
{"name":"GRIZZLY","year":2002,"lat":42.22888889,"lon":-120.55222222,"state":"OR"}
{"name":"TOOLBOX","year":2002,"lat":42.92416667,"lon":-121.03666667,"state":"OR"}
{"name":"SILVER","year":2002,"lat":42.99166667,"lon":-121.17416667,"state":"OR"}
{"name":"HENSEL","year":2002,"lat":42.31222222,"lon":-105.41,"state":"WY"}
{"name":"47","year":2002,"lat":38.425,"lon":-108.49944444,"state":"CO"}
{"name":"BUCKTAIL","year":2002,"lat":38.34916667,"lon":-108.43972222,"state":"CO"}
{"name":"WINTER","year":2002,"lat":42.74888889,"lon":-120.68333333,"state":"OR"}
{"name":"SCHOONOVER","year":2002,"lat":39.25,"lon":-105.19166667,"state":"CO"}
{"name":"ANDY","year":2003,"lat":44.51916667,"lon":-117.15472222,"state":"ID"}
{"name":"KIRKWELL","year":2002,"lat":37.185,"lon":-102.87833333,"state":"CO"}
{"name":"DEXTER","year":2003,"lat":37.83138889,"lon":-118.795,"state":"CA"}
{"name":"CHERRY CREEK","year":2003,"lat":47.47138889,"lon":-115.18666667,"state":"MT"}
{"name":"SKELETON FIRE","year":2003,"lat":31.5575,"lon":-109.08027778,"state":"AZ"}
{"name":"GOAT","year":2003,"lat":33.23527778,"lon":-108.95222222,"state":"NM"}
{"name":"DIVIDE","year":2003,"lat":33.81861111,"lon":-108.41833333,"state":"NM"}
{"name":"SPRUCE","year":2003,"lat":33.30027778,"lon":-108.73444444,"state":"NM"}
{"name":"SILVER","year":2003,"lat":33.37416667,"lon":-108.71777778,"state":"NM"}
{"name":"CATHEDRAL PEAK","year":2003,"lat":45.33083333,"lon":-109.94777778,"state":"MT"}
{"name":"BEAR CREEK WFU","year":2003,"lat":37.50555556,"lon":-107.53,"state":"CO"}
{"name":"NORTH FORK LICK","year":2003,"lat":45.09,"lon":-115.825,"state":"ID"}
{"name":"SAPP","year":2003,"lat":45.56166667,"lon":-115.205,"state":"ID"}
{"name":"MARBLE","year":2003,"lat":45.14388889,"lon":-115.26027778,"state":"ID"}
{"name":"RICHARDSON","year":2003,"lat":45.53722222,"lon":-115.29055556,"state":"ID"}
{"name":"HAAS RIDGE","year":2003,"lat":45.37555556,"lon":-116.72972222,"state":"OR"}
{"name":"TWO CORRAL","year":2003,"lat":45.56638889,"lon":-116.56694444,"state":"OR"}
{"name":"POET","year":2003,"lat":45.73666667,"lon":-115.06527778,"state":"ID"}
{"name":"SADDLE FORK","year":2003,"lat":46.18527778,"lon":-115.05416667,"state":"ID"}
{"name":"UPPER TWIN","year":2003,"lat":46.85555556,"lon":-115.49944444,"state":"ID"}
{"name":"BEAR","year":2003,"lat":46.0975,"lon":-114.70861111,"state":"ID"}
{"name":"MUDD","year":2003,"lat":38.42472222,"lon":-119.96111111,"state":"CA"}
{"name":"WHITT","year":2003,"lat":38.37805556,"lon":-119.99972222,"state":"CA"}
{"name":"MINERAL PARK","year":2003,"lat":48.46361111,"lon":-121.14472222,"state":"WA"}
{"name":"SNOWBANK","year":2003,"lat":47.08611111,"lon":-112.6425,"state":"MT"}
{"name":"MOOSE WASSON","year":2003,"lat":46.91277778,"lon":-112.83166667,"state":"MT"}
{"name":"WINSLOW / IDAHO","year":2003,"lat":44.55361111,"lon":-111.92861111,"state":"ID"}
{"name":"TOGO","year":2003,"lat":48.95305556,"lon":-118.40555556,"state":"WA"}
{"name":"MCCONNELL N","year":2003,"lat":46.36583333,"lon":-114.91388889,"state":"ID"}
{"name":"ROCK GARDEN","year":2003,"lat":46.60555556,"lon":-114.94472222,"state":"ID"}
{"name":"CAYUSE LAKE","year":2003,"lat":46.60388889,"lon":-114.85277778,"state":"ID"}
{"name":"PLEASANT","year":2003,"lat":46.585,"lon":-114.84972222,"state":"ID"}
{"name":"FISH","year":2003,"lat":46.35638889,"lon":-115.03916667,"state":"ID"}
{"name":"BEAVER LAKES","year":2003,"lat":46.55666667,"lon":-114.43,"state":"ID"}
{"name":"HOPEFUL 2","year":2003,"lat":46.67944444,"lon":-114.66027778,"state":"ID"}
{"name":"WENDOVER","year":2003,"lat":46.56694444,"lon":-114.81083333,"state":"ID"}
{"name":"PINCHOT CREEK","year":2003,"lat":46.10722222,"lon":-115.12083333,"state":"ID"}
{"name":"SHASTA","year":2003,"lat":46.26194444,"lon":-114.93444444,"state":"ID"}
{"name":"CRAZY HORSE","year":2003,"lat":47.41916667,"lon":-113.83194444,"state":"MT"}
{"name":"RED POINT","year":2003,"lat":43.61472222,"lon":-104.005,"state":"SD"}
{"name":"PETTIBONE CREEK","year":2003,"lat":46.0525,"lon":-114.83361111,"state":"ID"}
{"name":"SLIMS","year":2003,"lat":46.02472222,"lon":-115.2925,"state":"ID"}
{"name":"MOSS RIDGE","year":2003,"lat":43.95583333,"lon":-110.36666667,"state":"WY"}
{"name":"NORTH HOWARD","year":2003,"lat":46.80222222,"lon":-114.45055556,"state":"MT"}
{"name":"BOOTH  0848","year":2003,"lat":44.435,"lon":-121.83111111,"state":"OR"}
{"name":"SQUARE LAKE","year":2003,"lat":47.65,"lon":-121.09833333,"state":"WA"}
{"name":"BEAR BUTTE","year":2003,"lat":44.63638889,"lon":-121.75861111,"state":"OR"}
{"name":"BULL SPRINGS 2","year":2003,"lat":44.85055556,"lon":-118.97972222,"state":"OR"}
{"name":"STRAWBERRY","year":2003,"lat":46.66138889,"lon":-113.52666667,"state":"MT"}
{"name":"MUSSIGBROD","year":2000,"lat":45.84194444,"lon":-113.3175,"state":"MT"}
{"name":"CAPULIN","year":2003,"lat":35.87805556,"lon":-105.79861111,"state":"NM"}
{"name":"MORMON","year":2003,"lat":35.07138889,"lon":-111.36638889,"state":"AZ"}
{"name":"LIZARD","year":2003,"lat":35.13805556,"lon":-111.38805556,"state":"AZ"}
{"name":"GOLD ONE","year":2003,"lat":46.37083333,"lon":-113.93222222,"state":"MT"}
{"name":"ISABEL","year":2003,"lat":48.64972222,"lon":-119.89444444,"state":"WA"}
{"name":"FISH CREEK","year":2003,"lat":46.96472222,"lon":-114.65583333,"state":"MT"}
{"name":"THOMPSON CREEK","year":2003,"lat":46.85027778,"lon":-114.75388889,"state":"MT"}
{"name":"MINERAL/PRIMM","year":2003,"lat":47.02527778,"lon":-113.83472222,"state":"MT"}
{"name":"MAPLE 2","year":2003,"lat":48.01611111,"lon":-120.85083333,"state":"WA"}
{"name":"BLACKFOOT LAKE","year":2003,"lat":48.18944444,"lon":-113.91055556,"state":"MT"}
{"name":"LARGO","year":2003,"lat":33.56777778,"lon":-109.78027778,"state":"AZ"}
{"name":"MAVERICK","year":2003,"lat":33.10583333,"lon":-109.14777778,"state":"AZ"}
{"name":"MAPLE","year":2003,"lat":33.35166667,"lon":-109.05111111,"state":"AZ"}
{"name":"THOMAS","year":2003,"lat":33.6775,"lon":-109.25833333,"state":"AZ"}
{"name":"STEEPLE","year":2003,"lat":33.61027778,"lon":-109.26277778,"state":"AZ"}
{"name":"WEDGE CANYON","year":2003,"lat":48.88361111,"lon":-114.55111111,"state":"MT"}
{"name":"BOX","year":2003,"lat":38.12694444,"lon":-119.89388889,"state":"CA"}
{"name":"BETA LAKE","year":2003,"lat":48.33444444,"lon":-114.01444444,"state":"MT"}
{"name":"GYP MOUNTAIN","year":2003,"lat":47.52,"lon":-113.4925,"state":"MT"}
{"name":"UNA","year":2003,"lat":47.46222222,"lon":-113.40777778,"state":"MT"}
{"name":"LAKE CREEK","year":2003,"lat":43.31277778,"lon":-105.12027778,"state":"WY"}
{"name":"LIME CREEK","year":2003,"lat":47.53138889,"lon":-113.23472222,"state":"MT"}
{"name":"GORDON CREEK","year":2003,"lat":47.41916667,"lon":-113.23805556,"state":"MT"}
{"name":"LEOTA PEAK","year":2003,"lat":47.30361111,"lon":-113.36527778,"state":"MT"}
{"name":"MID","year":2003,"lat":47.78111111,"lon":-113.33611111,"state":"MT"}
{"name":"SOME CREEK","year":2003,"lat":47.46222222,"lon":-113.38666667,"state":"MT"}
{"name":"BARTLETT MOUNTAIN","year":2003,"lat":47.50555556,"lon":-113.34416667,"state":"MT"}
{"name":"BALL CREEK","year":2003,"lat":48.01555556,"lon":-113.73833333,"state":"MT"}
{"name":"KELSAY","year":2003,"lat":43.35722222,"lon":-122.18777778,"state":"OR"}
{"name":"WITHINGTON","year":2003,"lat":45.03333333,"lon":-113.83333333,"state":"ID"}
{"name":"CRYSTAL","year":2003,"lat":44.47222222,"lon":-115.07,"state":"ID"}
{"name":"PROSPECT CREEK","year":2003,"lat":44.81,"lon":-114.96416667,"state":"ID"}
{"name":"SUMMIT","year":2003,"lat":36.21805556,"lon":-118.13138889,"state":"CA"}
{"name":"ANT PARK","year":2003,"lat":46.74222222,"lon":-110.62083333,"state":"MT"}
{"name":"MOUNTAIN","year":2003,"lat":38.13111111,"lon":-119.88638889,"state":"CA"}
{"name":"CHILCOOT COMPLEX","year":2003,"lat":39.76916667,"lon":-120.16027778,"state":"CA"}
{"name":"ACKLEY","year":2003,"lat":41.75305556,"lon":-121.32388889,"state":"CA"}
{"name":"SLIPPERY CREEK","year":2003,"lat":45.99277778,"lon":-110.39,"state":"MT"}
{"name":"ROUGH DRAW","year":2003,"lat":45.56888889,"lon":-110.41333333,"state":"MT"}
{"name":"BRUNDAGE","year":2003,"lat":45.11972222,"lon":-110.42444444,"state":"MT"}
{"name":"RATHBONE","year":2003,"lat":44.88916667,"lon":-111.10305556,"state":"MT"}
{"name":"FAREWELL","year":2003,"lat":48.75305556,"lon":-120.17972222,"state":"WA"}
{"name":"NORTH STODDARD","year":2003,"lat":45.25361111,"lon":-114.6975,"state":"ID"}
{"name":"CRAMER","year":2003,"lat":45.32944444,"lon":-114.62416667,"state":"ID"}
{"name":"NEEDLES","year":2003,"lat":48.6,"lon":-120.66666667,"state":"WA"}
{"name":"LITTLE HORN II","year":2003,"lat":44.98611111,"lon":-107.65138889,"state":"WY"}
{"name":"DEEP LAKE","year":2003,"lat":44.89416667,"lon":-109.35916667,"state":"WY"}
{"name":"NORRIS","year":2003,"lat":44.30444444,"lon":-109.88222222,"state":"WY"}
{"name":"BOULDER BASIN II","year":2003,"lat":44.13166667,"lon":-109.56972222,"state":"WY"}
{"name":"BLACKWATER","year":2003,"lat":44.38722222,"lon":-109.76555556,"state":"WY"}
{"name":"COONEY","year":2003,"lat":36.34361111,"lon":-118.53694444,"state":"CA"}
{"name":"HOOKER","year":2003,"lat":36.08583333,"lon":-118.20027778,"state":"CA"}
{"name":"TURNBO","year":2003,"lat":33.20138889,"lon":-108.48583333,"state":"NM"}
{"name":"DRY","year":2003,"lat":33.10222222,"lon":-108.40222222,"state":"NM"}
{"name":"MOONSHINE","year":2003,"lat":33.35083333,"lon":-108.46916667,"state":"NM"}
{"name":"HOT CREEK","year":2003,"lat":43.81888889,"lon":-115.31694444,"state":"ID"}
{"name":"HAPPY CAMP","year":2003,"lat":39.54055556,"lon":-122.73527778,"state":"CA"}
{"name":"DEAFY","year":2003,"lat":39.51138889,"lon":-122.78472222,"state":"CA"}
{"name":"FOX","year":2004,"lat":33.71833333,"lon":-111.295,"state":"AZ"}
{"name":"RED BULL","year":2004,"lat":40.01027778,"lon":-111.37777778,"state":"UT"}
{"name":"NEW","year":2004,"lat":33.985,"lon":-111.94666667,"state":"AZ"}
{"name":"COLE COMPLEX","year":2004,"lat":38.55416667,"lon":-119.53055556,"state":"CA"}
{"name":"MID-BULL","year":2004,"lat":39.56111111,"lon":-119.98138889,"state":"NV"}
{"name":"COOK","year":2004,"lat":45.65083333,"lon":-106.14111111,"state":"MT"}
{"name":"LITTLE BRADSHAW","year":2004,"lat":45.16666667,"lon":-106.09166667,"state":"MT"}
{"name":"HAWKINS 2","year":2004,"lat":37.46583333,"lon":-113.89027778,"state":"UT"}
{"name":"HAWKINS 1","year":2004,"lat":37.46166667,"lon":-113.91027778,"state":"UT"}
{"name":"PINE PARK 2","year":2004,"lat":37.54611111,"lon":-114.01666667,"state":"UT"}
{"name":"WILLOW","year":2004,"lat":34.08111111,"lon":-111.60472222,"state":"AZ"}
{"name":"NORTH STAR BUTTE","year":2004,"lat":45.16277778,"lon":-116.45694444,"state":"ID"}
{"name":"JACKET","year":2004,"lat":35.04444444,"lon":-111.35722222,"state":"AZ"}
{"name":"DEEP HARBOR","year":2004,"lat":48.085,"lon":-120.51972222,"state":"WA"}
{"name":"POT PEAK","year":2004,"lat":47.93888889,"lon":-120.31527778,"state":"WA"}
{"name":"TRANSFER","year":2004,"lat":35.95222222,"lon":-112.035,"state":"AZ"}
{"name":"CAMP 36","year":2004,"lat":35.93805556,"lon":-111.94388889,"state":"AZ"}
{"name":"WILDSTEER","year":2004,"lat":35.10111111,"lon":-112.24111111,"state":"AZ"}
{"name":"PORTER WFU","year":2004,"lat":44.47583333,"lon":-115.50166667,"state":"ID"}
{"name":"NUTTALL","year":2004,"lat":32.73861111,"lon":-109.99055556,"state":"AZ"}
{"name":"WILLIAMS BUTTE","year":2004,"lat":48.38777778,"lon":-120.52361111,"state":"WA"}
{"name":"BEAR SPRING","year":2004,"lat":45.555,"lon":-114.10805556,"state":"ID"}
{"name":"GRASSY","year":2004,"lat":42.39416667,"lon":-120.13638889,"state":"OR"}
{"name":"RINCON","year":2004,"lat":33.14194444,"lon":-108.26055556,"state":"NM"}
{"name":"GRANNY","year":2004,"lat":33.09861111,"lon":-108.31166667,"state":"NM"}
{"name":"SIX MILE","year":2004,"lat":39.18972222,"lon":-111.60138889,"state":"UT"}
{"name":"B391","year":1995,"lat":66.8327,"lon":-160.7361,"state":"AK"}
{"name":"BURNOUT","year":1999,"lat":26.3337,"lon":-80.8165,"state":"FL"}
{"name":"ALLENTOWN5","year":1996,"lat":35.2384,"lon":-109.1456,"state":"AZ"}
{"name":"HDSCRABBLE","year":1996,"lat":34.9417,"lon":-109.2923,"state":"AZ"}
{"name":"MICHAUD 3","year":1992,"lat":42.8499,"lon":-112.5341,"state":"ID"}
{"name":"MARKER 62","year":1992,"lat":46.2499,"lon":-116.1593,"state":"ID"}
{"name":"MCDONALD","year":1994,"lat":47.3541,"lon":-114.4635,"state":"MT"}
{"name":"WHITMORE","year":1992,"lat":48.1282,"lon":-119.2461,"state":"WA"}
{"name":"BOOT MTN","year":1992,"lat":48.2149,"lon":-119.3111,"state":"WA"}
{"name":"RATTLESNAK","year":1992,"lat":48.2449,"lon":-119.2678,"state":"WA"}
{"name":"COLD SPRIN","year":1998,"lat":48.2502,"lon":-119.4231,"state":"WA"}
{"name":"KAISER CYN","year":1998,"lat":48.0788,"lon":-118.97,"state":"WA"}
{"name":"YEDLICK","year":1994,"lat":46.2907,"lon":-121.2395,"state":"WA"}
{"name":"LAKEBEDS","year":1994,"lat":46.0512,"lon":-120.8295,"state":"WA"}
{"name":"ROAD 135","year":1994,"lat":46.0498,"lon":-120.8545,"state":"WA"}
{"name":"SPRING CK","year":1994,"lat":46.1215,"lon":-120.7928,"state":"WA"}
{"name":"ROCK BLUFF","year":1998,"lat":46.1649,"lon":-120.1281,"state":"WA"}
{"name":"JO JO","year":1998,"lat":46.0799,"lon":-120.3048,"state":"WA"}
{"name":"WILDCAT","year":1998,"lat":32.9842,"lon":-116.8284,"state":"CA"}
{"name":"LIVERMORE","year":1994,"lat":48.8,"lon":-113.2509,"state":"MT"}
{"name":"SHARPSFIRE","year":1996,"lat":48.6,"lon":-112.9843,"state":"MT"}
{"year":1994,"lat":45.25,"lon":-108.534,"state":"MT"}
{"year":1994,"lat":45.3333,"lon":-108.2507,"state":"MT"}
{"name":"DUNMORE I","year":1996,"lat":45.7214,"lon":-107.3515,"state":"MT"}
{"name":"SCARFACEII","year":1996,"lat":45.6531,"lon":-106.3547,"state":"MT"}
{"name":"GARFIELD","year":1998,"lat":45.6861,"lon":-106.4353,"state":"MT"}
{"name":"17MILE#6","year":1994,"lat":43.0,"lon":-108.5007,"state":"WY"}
{"name":"BLACK RIDG","year":1994,"lat":37.1167,"lon":-107.9642,"state":"CO"}
{"name":"CHUICHU02","year":1995,"lat":32.7834,"lon":-111.784,"state":"AZ"}
{"name":"GREEN","year":1997,"lat":33.3867,"lon":-110.039,"state":"AZ"}
{"name":"BLUE RIVER","year":1998,"lat":33.4678,"lon":-110.2026,"state":"AZ"}
{"name":"TOWERS-1","year":1994,"lat":35.9869,"lon":-113.8727,"state":"AZ"}
{"name":"LOST","year":1995,"lat":35.785,"lon":-113.7858,"state":"AZ"}
{"name":"MUD","year":1995,"lat":35.5178,"lon":-113.5027,"state":"AZ"}
{"name":"SKULL CR","year":1994,"lat":41.9166,"lon":-116.0509,"state":"NV"}
{"name":"PETAN/DRY","year":1996,"lat":41.8774,"lon":-116.3148,"state":"NV"}
{"name":"232266","year":1992,"lat":66.5161,"lon":-155.736,"state":"AK"}
{"name":"BTT 3 48","year":1992,"lat":66.1828,"lon":-152.386,"state":"AK"}
{"name":"CEMWNW73","year":1992,"lat":65.9163,"lon":-147.6692,"state":"AK"}
{"name":"CEM SW 50","year":1992,"lat":65.3996,"lon":-146.6858,"state":"AK"}
{"name":"CEM NW 42","year":1992,"lat":65.7163,"lon":-146.5025,"state":"AK"}
{"name":"CEM NW 45","year":1992,"lat":65.7329,"lon":-146.6358,"state":"AK"}
{"name":"232412","year":1992,"lat":65.8997,"lon":-143.9025,"state":"AK"}
{"name":"232414","year":1992,"lat":67.3997,"lon":-144.636,"state":"AK"}
{"name":"FYU E 75","year":1992,"lat":66.483,"lon":-142.2859,"state":"AK"}
{"name":"304222","year":1993,"lat":61.3159,"lon":-159.4857,"state":"AK"}
{"name":"332229","year":1993,"lat":62.816,"lon":-157.8024,"state":"AK"}
{"name":"332248","year":1993,"lat":65.7995,"lon":-149.7192,"state":"AK"}
{"name":"TAL SW 83","year":1993,"lat":63.9828,"lon":-153.669,"state":"AK"}
